trip_id,arrival_time,departure_time,stop_id,stop_sequence,stop_headsign,pickup_type,drop_off_type,line_id,opp_line,route_id,shape_id,service_id,generic_line,direction,stop_code,stop_name,stop_desc,stop_lat,stop_lon,zone_id,stop_url,location_type,parent_station,wheelchair_boarding,route_type,type,type_int,capacity,length,platform_no,geometry,x,y,proj_on_line,block_id,station_no
T122,11:20:00,11:20:00,S14,1,,0,0,A_1,A_2,10196,L5,1,A,1,7510,JOHNS HOPKINS STATION (METRO),,39.298289000000004,-76.594107,,,,,0,1,CR,1,170,60,A1_1,POINT (435012.0195394026 181198.3433507239),435012.01953940256,181198.34335072388,"(434997.83660520276, 181206.49576136313)",104,A1
T122,11:22:00,11:22:00,S15,2,,0,0,A_1,A_2,10196,L5,1,A,1,7511,SHOT TOWER STATION (METRO) nb,,39.289952,-76.605814,,,,,0,1,CR,1,170,60,A2_1,POINT (434006.1856317935 180268.3656188345),434006.1856317935,180268.36561883448,"(434009.11973164656, 180268.15625020897)",105,A2
T122,11:24:00,11:24:00,S16,3,,0,0,A_1,A_2,10196,L5,1,A,1,7512,CHARLES CENTER (METRO) nb,,39.289452000000004,-76.616275,,,,,0,1,CR,1,170,60,A3_1,POINT (433103.9602625248 180209.0117856035),433103.9602625248,180209.01178560348,"(433094.03553744464, 180209.8582281852)",106,A3
T122,11:25:00,11:25:00,S17,4,,0,0,A_1,A_2,10196,L5,1,A,1,7513,LEXINGTON MARKET (METRO) nb,,39.29173,-76.620914,,,,,0,1,CR,1,170,60,A4_1,POINT (432702.7057998121 180460.2373738698),432702.7057998121,180460.23737386984,"(432690.2260634774, 180432.4307205015)",107,A4
T122,11:27:00,11:27:00,S18,5,,0,0,A_1,A_2,10196,L5,1,A,1,7514,STATE CENTER (METRO) nb,,39.301515,-76.623166,,,,,0,1,CR,1,170,60,A5_1,POINT (432503.9488212912 181545.7404599897),432503.9488212912,181545.7404599897,"(432506.91861042386, 181536.76012596916)",108,A5
T122,11:29:00,11:29:00,S19,6,,0,0,A_1,A_2,10196,L5,1,A,1,7515,UPTON STATION (METRO) nb,,39.305318,-76.63672,,,,,0,1,CR,1,170,60,A6_1,POINT (431333.1699382884 181963.2023839849),431333.1699382884,181963.20238398493,"(431337.53901024425, 181949.00924562654)",109,A6
T122,11:30:00,11:30:00,S20,7,,0,0,A_1,A_2,10196,L5,1,A,1,7516,PENN NORTH STAT (METRO) nb,,39.310195,-76.64259,,,,,0,1,CR,1,170,60,A7_1,POINT (430824.7608629147 182502.6391150465),430824.7608629147,182502.63911504654,"(430833.4396481114, 182488.79561480094)",110,A7
T122,11:32:00,11:32:00,S21,8,,0,0,A_1,A_2,10196,L5,1,A,1,7517,MONDAWMIN STATION (METRO) nb,,39.318211,-76.652759,,,,,0,1,CR,1,170,60,A8_1,POINT (429944.3565027668 183389.1774110194),429944.35650276684,183389.1774110194,"(429941.4165013265, 183391.27561029108)",111,A8
T122,11:35:00,11:35:00,S22,9,,0,0,A_1,A_2,10196,L5,1,A,1,5584,WEST COLDSPRING STATION (METRO) nb,,39.336464,-76.672632,,,,,0,1,CR,1,170,60,A9_1,POINT (428223.347298328 185409.2731136333),428223.347298328,185409.27311363327,"(428192.28595493315, 185464.22802553466)",112,A9
T122,11:37:00,11:37:00,S23,10,,0,0,A_1,A_2,10196,L5,1,A,1,10420,ROGERS STATION (METRO) nb,,39.346336,-76.69438199999998,,,,,0,1,CR,1,170,60,A10_1,POINT (426344.5546239211 186498.7563597997),426344.55462392105,186498.7563597997,"(426343.7668992338, 186528.06323877643)",113,A10
T122,11:39:00,11:39:00,S24,11,,0,0,A_1,A_2,10196,L5,1,A,1,7519,REIST PLAZA STATION (METRO) nb,,39.352589,-76.70609499999998,,,,,0,1,CR,1,170,60,A11_1,POINT (425332.6517156075 187189.6477515424),425332.6517156075,187189.64775154242,"(425353.7006828879, 187210.92057127343)",114,A11
T122,11:41:00,11:41:00,S25,12,,0,0,A_1,A_2,10196,L5,1,A,1,7520,MILFORD MILL STATION (METRO) nb,,39.362777,-76.721459,,,,,0,1,CR,1,170,60,A12_1,POINT (424004.9304005188 188316.5689595784),424004.93040051876,188316.56895957844,"(424003.89332566876, 188345.76441551623)",115,A12
T122,11:44:00,11:44:00,S26,13,,0,0,A_1,A_2,10196,L5,1,A,1,7522,OLD COURT STATION (METRO) nb,,39.371003,-76.74366500000002,,,,,0,1,CR,1,170,60,A13_1,POINT (422088.6368846096 189224.2176038008),422088.6368846096,189224.2176038008,"(422110.58104813495, 189204.07332593863)",116,A13
T122,11:49:00,11:49:00,S1,14,,0,0,A_1,A_2,10196,L5,1,A,1,7500,OWINGS MILLS STATION (METRO),,39.407641999999996,-76.78076800000002,,,,,0,1,CR,1,170,60,A14_1,POINT (418881.6731065561 193283.6059548797),418881.6731065561,193283.60595487972,"(418892.6138119891, 193282.52200896802)",117,A14
T1, 6:12:00, 6:12:00,S1,1,,0,0,A_2,A_1,10196,L1,1,A,2,7500,OWINGS MILLS STATION (METRO),,39.407641999999996,-76.78076800000002,,,,,0,1,CR,1,170,60,A14_2,POINT (418881.6731065561 193283.6059548797),418881.6731065561,193283.60595487972,"(418892.6138119891, 193282.52200896802)",1,A14
T1, 6:16:00, 6:16:00,S26,2,,0,0,A_2,A_1,10196,L1,1,A,2,7522,OLD COURT STATION (METRO) nb,,39.371003,-76.74366500000002,,,,,0,1,CR,1,170,60,A13_2,POINT (422088.6368846096 189224.2176038008),422088.6368846096,189224.2176038008,"(422110.58104813495, 189204.07332593863)",2,A13
T1, 6:19:00, 6:19:00,S25,3,,0,0,A_2,A_1,10196,L1,1,A,2,7520,MILFORD MILL STATION (METRO) nb,,39.362777,-76.721459,,,,,0,1,CR,1,170,60,A12_2,POINT (424004.9304005188 188316.5689595784),424004.93040051876,188316.56895957844,"(424003.89332566876, 188345.76441551623)",3,A12
T1, 6:21:00, 6:21:00,S24,4,,0,0,A_2,A_1,10196,L1,1,A,2,7519,REIST PLAZA STATION (METRO) nb,,39.352589,-76.70609499999998,,,,,0,1,CR,1,170,60,A11_2,POINT (425332.6517156075 187189.6477515424),425332.6517156075,187189.64775154242,"(425353.7006828879, 187210.92057127343)",4,A11
T1, 6:23:00, 6:23:00,S23,5,,0,0,A_2,A_1,10196,L1,1,A,2,10420,ROGERS STATION (METRO) nb,,39.346336,-76.69438199999998,,,,,0,1,CR,1,170,60,A10_2,POINT (426344.5546239211 186498.7563597997),426344.55462392105,186498.7563597997,"(426343.7668992338, 186528.06323877643)",5,A10
T1, 6:25:00, 6:25:00,S22,6,,0,0,A_2,A_1,10196,L1,1,A,2,5584,WEST COLDSPRING STATION (METRO) nb,,39.336464,-76.672632,,,,,0,1,CR,1,170,60,A9_2,POINT (428223.347298328 185409.2731136333),428223.347298328,185409.27311363327,"(428192.28595493315, 185464.22802553466)",6,A9
T1, 6:28:00, 6:28:00,S21,7,,0,0,A_2,A_1,10196,L1,1,A,2,7517,MONDAWMIN STATION (METRO) nb,,39.318211,-76.652759,,,,,0,1,CR,1,170,60,A8_2,POINT (429944.3565027668 183389.1774110194),429944.35650276684,183389.1774110194,"(429941.4165013265, 183391.27561029108)",7,A8
T1, 6:30:00, 6:30:00,S20,8,,0,0,A_2,A_1,10196,L1,1,A,2,7516,PENN NORTH STAT (METRO) nb,,39.310195,-76.64259,,,,,0,1,CR,1,170,60,A7_2,POINT (430824.7608629147 182502.6391150465),430824.7608629147,182502.63911504654,"(430833.4396481114, 182488.79561480094)",8,A7
T1, 6:32:00, 6:32:00,S19,9,,0,0,A_2,A_1,10196,L1,1,A,2,7515,UPTON STATION (METRO) nb,,39.305318,-76.63672,,,,,0,1,CR,1,170,60,A6_2,POINT (431333.1699382884 181963.2023839849),431333.1699382884,181963.20238398493,"(431337.53901024425, 181949.00924562654)",9,A6
T1, 6:34:00, 6:34:00,S18,10,,0,0,A_2,A_1,10196,L1,1,A,2,7514,STATE CENTER (METRO) nb,,39.301515,-76.623166,,,,,0,1,CR,1,170,60,A5_2,POINT (432503.9488212912 181545.7404599897),432503.9488212912,181545.7404599897,"(432506.91861042386, 181536.76012596916)",10,A5
T1, 6:35:00, 6:35:00,S17,11,,0,0,A_2,A_1,10196,L1,1,A,2,7513,LEXINGTON MARKET (METRO) nb,,39.29173,-76.620914,,,,,0,1,CR,1,170,60,A4_2,POINT (432702.7057998121 180460.2373738698),432702.7057998121,180460.23737386984,"(432690.2260634774, 180432.4307205015)",11,A4
T1, 6:37:00, 6:37:00,S16,12,,0,0,A_2,A_1,10196,L1,1,A,2,7512,CHARLES CENTER (METRO) nb,,39.289452000000004,-76.616275,,,,,0,1,CR,1,170,60,A3_2,POINT (433103.9602625248 180209.0117856035),433103.9602625248,180209.01178560348,"(433094.03553744464, 180209.8582281852)",12,A3
T1, 6:39:00, 6:39:00,S15,13,,0,0,A_2,A_1,10196,L1,1,A,2,7511,SHOT TOWER STATION (METRO) nb,,39.289952,-76.605814,,,,,0,1,CR,1,170,60,A2_2,POINT (434006.1856317935 180268.3656188345),434006.1856317935,180268.36561883448,"(434009.11973164656, 180268.15625020897)",13,A2
T1, 6:41:00, 6:41:00,S14,14,,0,0,A_2,A_1,10196,L1,1,A,2,7510,JOHNS HOPKINS STATION (METRO),,39.298289000000004,-76.594107,,,,,0,1,CR,1,170,60,A1_2,POINT (435012.0195394026 181198.3433507239),435012.01953940256,181198.34335072388,"(434997.83660520276, 181206.49576136313)",14,A1
T572, 4:59:00, 4:59:00,S58,1,,0,0,B_1,B_2,10210,L16,1,B,1,7627,BWI AIRPORT LT RAIL nb,,39.181298,-76.668468,,,,,0,0,LR,0,105,56,B1_1,POINT (428644.896159993 168184.5613366047),428644.89615999296,168184.56133660467,"(428640.91807569575, 168185.54603148642)",29,B1
T572, 5:02:00, 5:02:00,S59,2,,0,0,B_1,B_2,10210,L16,1,B,1,7628,BWI BUSINESS PARK STATION,,39.191594,-76.673937,,,,,0,0,LR,0,105,56,B2_1,POINT (428168.2852370862 169325.8635961327),428168.28523708624,169325.86359613272,"(428108.20379364083, 169312.99340688813)",30,B2
T572, 5:07:00, 5:07:00,S50,3,,0,0,B_1,B_2,10210,L16,1,B,1,7630,LINTHICUM LT RAIL nb,,39.202261,-76.655047,,,,,0,0,LR,0,105,56,B3_1,POINT (429795.6928111051 170516.0541569358),429795.6928111051,170516.0541569358,"(429752.36354826274, 170484.69494938263)",31,B3
T572, 5:10:00, 5:10:00,S51,4,,0,0,B_1,B_2,10210,L16,1,B,1,7631,NORTH LINTHICUM LT RAIL nb,,39.214389000000004,-76.645586,,,,,0,0,LR,0,105,56,B4_1,POINT (430607.6658063255 171865.5734366617),430607.6658063255,171865.57343666165,"(430649.99108677247, 171996.8487115497)",32,B4
T572, 5:12:00, 5:12:00,S52,5,,0,0,B_1,B_2,10210,L16,1,B,1,7632,NURSERY RD & LIGHT RAIL nb,,39.222291,-76.64094300000002,,,,,0,0,LR,0,105,56,B5_1,POINT (431005.1890286337 172744.382501001),431005.1890286337,172744.38250100103,"(431072.071717888, 172929.93334291328)",33,B5
T572, 5:14:00, 5:14:00,S53,6,,0,0,B_1,B_2,10210,L16,1,B,1,7634,BATIMORE HIGHLANDS & LT RAIL nb,,39.234256,-76.633123,,,,,0,0,LR,0,105,56,B6_1,POINT (431675.1175715986 174075.3675318806),431675.1175715986,174075.36753188065,"(431669.2643169875, 174092.44069826655)",34,B6
T572, 5:16:00, 5:16:00,S54,7,,0,0,B_1,B_2,10210,L16,1,B,1,7635,PATAPSCO & LIGHT RAIL STAT nb,,39.242013,-76.629838,,,,,0,0,LR,0,105,56,B7_1,POINT (431955.2417306062 174937.6617364841),431955.24173060624,174937.66173648412,"(431954.9353804292, 174970.63275574095)",35,B7
T572, 5:18:00, 5:18:00,S55,8,,0,0,B_1,B_2,10210,L16,1,B,1,7637,CHERRY HILL LIGHT RAIL STAT nb,,39.256034,-76.63489200000002,,,,,0,0,LR,0,105,56,B8_1,POINT (431512.7182954179 176492.4618638701),431512.7182954179,176492.4618638701,"(431489.2221867314, 176518.90125965248)",36,B8
T572, 5:20:00, 5:20:00,S56,9,,0,0,B_1,B_2,10210,L16,1,B,1,7638,WESTPORT LIGHT RAIL STAT nb,,39.262107,-76.631345,,,,,0,0,LR,0,105,56,B9_1,POINT (431816.1379246935 177167.8950416676),431816.1379246935,177167.89504166762,"(431820.25129139225, 177217.86991167153)",37,B9
T572, 5:23:00, 5:23:00,S57,10,,0,0,B_1,B_2,10210,L16,1,B,1,7639,HAMBURG & LIGHT RAIL STAT nb,,39.278425,-76.620326,,,,,0,0,LR,0,105,56,B10_1,POINT (432759.573960531 178983.3639944053),432759.573960531,178983.36399440534,"(432772.883974059, 179019.5005163692)",38,B10
T572, 5:25:00, 5:25:00,S29,11,,0,0,B_1,B_2,10210,L16,1,B,1,7640,CAMDEN STA/LT RAIL,,39.282038,-76.619426,,,,,0,0,LR,0,105,56,B11_1,POINT (432835.5564148838 179384.7919919196),432835.55641488376,179384.7919919196,"(432851.8070376466, 179336.23341531013)",39,B11
T572, 5:27:00, 5:27:00,S30,12,,0,0,B_1,B_2,10210,L16,1,B,1,7641,PRATT ST LIGHT RAIL STAT nb,,39.286263,-76.619375,,,,,0,0,LR,0,105,56,B12_1,POINT (432838.0009269859 179853.8579646453),432838.00092698593,179853.85796464534,"(432840.99549762084, 179859.86548735792)",40,B12
T572, 5:29:31, 5:29:31,S31,13,,0,0,B_1,B_2,10210,L16,1,B,1,7642,BALTIMORE ST & LIGHT RAIL STAT nb,,39.289155,-76.619511,,,,,0,0,LR,0,105,56,B13_1,POINT (432824.9295561438 180174.8711064127),432824.9295561438,180174.8711064127,"(432824.93670048466, 180193.85543429622)",41,B13
T572, 5:32:00, 5:32:00,S32,14,,0,0,B_1,B_2,10210,L16,1,B,1,7643,LEXINGTON ST & LIGHT RAIL STAT nb,,39.291975,-76.619686,,,,,0,0,LR,0,105,56,B14_1,POINT (432808.5280532467 180487.8772728195),432808.5280532467,180487.87727281952,"(432812.6431754387, 180431.94065600715)",42,B14
T572, 5:35:00, 5:35:00,S33,15,,0,0,B_1,B_2,10210,L16,1,B,1,7644,CENTRE ST & LT RAIL STAT nb,,39.296501,-76.619951,,,,,0,0,LR,0,105,56,B15_1,POINT (432783.5755865326 180990.2473919808),432783.5755865326,180990.24739198084,"(432781.20434592833, 180958.93001542622)",43,B15
T572, 5:38:00, 5:38:00,S34,16,,0,0,B_1,B_2,10210,L16,1,B,1,7645,CULTURAL CTR & LT RAIL nb,,39.303022,-76.620324,,,,,0,0,LR,0,105,56,B16_1,POINT (432748.3892861285 181714.060010535),432748.38928612845,181714.060010535,"(432737.5272802931, 181754.09297077067)",44,B16
T572, 5:40:00, 5:40:00,S35,17,,0,0,B_1,B_2,10210,L16,1,B,1,7646,MT ROYAL & LT RAIL STAT nb,,39.307181,-76.619973,,,,,0,0,LR,0,105,56,B17_1,POINT (432776.7419647634 182175.9093893652),432776.74196476344,182175.9093893652,"(432787.4387650202, 182154.74912950152)",45,B17
T572, 5:42:00, 5:42:00,S27,18,,0,0,B_1,B_2,10210,L16,1,B,1,7648,NORTH AVE LIGHT RAIL  nb,,39.311471999999995,-76.622241,,,,,0,0,LR,0,105,56,B18_1,POINT (432579.1602839306 182651.475929879),432579.1602839306,182651.47592987903,"(432576.6693503497, 182649.02318216284)",46,B18
T572, 5:43:00, 5:43:00,S36,19,,1,1,B_1,B_2,10210,L16,1,B,1,7649,RELIEF PT/DIVISION,,39.312388,-76.622754,,,,,0,0,LR,0,105,56,B19_1,POINT (432534.4975106292 182752.985585242),432534.49751062924,182752.98558524202,"(432521.08875722904, 182742.0502209645)",47,B19
T572, 5:46:00, 5:46:00,S37,20,,0,0,B_1,B_2,10210,L16,1,B,1,7650,WOODBERRY/LT RAIL  sb,,39.330979,-76.643242,,,,,0,0,LR,0,105,56,B20_1,POINT (430759.5120624278 184809.8282799194),430759.5120624278,184809.8282799194,"(430746.660126861, 184833.20340773516)",48,B20
T572, 5:48:00, 5:48:00,S38,21,,0,0,B_1,B_2,10210,L16,1,B,1,7651,COLDSPRING & LIGHT RAIL STAT nb,,39.344153999999996,-76.647801,,,,,0,0,LR,0,105,56,B21_1,POINT (430360.7959605939 186270.9790601667),430360.7959605939,186270.97906016672,"(430353.1555727577, 186262.7340312762)",49,B21
T572, 5:52:00, 5:52:00,S39,22,,0,0,B_1,B_2,10210,L16,1,B,1,7652,MT WASHINGTON & LT RAIL STAT nb,,39.367908,-76.651504,,,,,0,0,LR,0,105,56,B22_1,POINT (430031.5183737414 188906.9183336175),430031.51837374136,188906.91833361748,"(430031.0767678316, 188887.15476078377)",50,B22
T572, 5:53:00, 5:53:00,S40,23,,0,0,B_1,B_2,10210,L16,1,B,1,7654,FALLS RD & LT RAIL STAT nb,,39.376072,-76.650423,,,,,0,0,LR,0,105,56,B23_1,POINT (430121.2018686021 189813.6447547503),430121.2018686021,189813.6447547503,"(430124.84400466434, 189830.08997964588)",51,B23
T572, 6:00:00, 6:00:00,S41,24,,0,0,B_1,B_2,10210,L16,1,B,1,7655,LUTHERVILLE & LT RAIL STAT nb,,39.429551000000004,-76.627089,,,,,0,0,LR,0,105,56,B24_1,POINT (432107.5045565507 195758.9131948782),432107.5045565507,195758.9131948782,"(432103.3860308268, 195692.1708182071)",52,B24
T572, 6:02:00, 6:02:00,S42,25,,0,0,B_1,B_2,10210,L16,1,B,1,7656,TIMONIUM BUSINESS PARK,,39.434124,-76.628174,,,,,0,0,LR,0,105,56,B25_1,POINT (432012.0190185143 196266.2378797854),432012.01901851426,196266.23787978545,"(432011.62183758325, 196236.9258229807)",53,B25
T572, 6:04:00, 6:04:00,S43,26,,0,0,B_1,B_2,10210,L16,1,B,1,7657,TIMONIUM FAIRGROUNDS LIGHT RAIL STATION nb,,39.448592,-76.634893,,,,,0,0,LR,0,105,56,B26_1,POINT (431427.1316560515 197870.1818032893),431427.1316560515,197870.18180328928,"(431423.1091692422, 197864.39242077988)",54,B26
T572, 6:09:00, 6:09:00,S44,27,,0,0,B_1,B_2,10210,L16,1,B,1,7658,WARREN RD LIT RAIL nb,,39.475603,-76.65351899999997,,,,,0,0,LR,0,105,56,B27_1,POINT (429812.4966355476 200862.7957336526),429812.4966355476,200862.79573365263,"(429850.5981560446, 200889.6976781008)",55,B27
T572, 6:12:00, 6:12:00,S45,28,,0,0,B_1,B_2,10210,L16,1,B,1,7659,GILROY RD LIGHT RAIL  nb,,39.481590999999995,-76.661789,,,,,0,0,LR,0,105,56,B28_1,POINT (429098.4557302656 201524.9415252402),429098.45573026565,201524.94152524023,"(429096.57953582983, 201566.9024353656)",56,B28
T572, 6:14:00, 6:14:00,S46,29,,0,0,B_1,B_2,10210,L16,1,B,1,7660,McCORMICK RD LIGHT RAIL nb,,39.48995,-76.658265,,,,,0,0,LR,0,105,56,B29_1,POINT (429398.1724265037 202454.1261793211),429398.1724265037,202454.1261793211,"(429423.1133400229, 202433.01353737232)",57,B29
T572, 6:17:00, 6:17:00,S47,30,,0,0,B_1,B_2,10210,L16,1,B,1,7661,PEPPER RD & LT RAIL STAT nb,,39.492211,-76.65487399999998,,,,,0,0,LR,0,105,56,B30_1,POINT (429688.9369364635 202706.2509247423),429688.9369364635,202706.25092474226,"(429677.9029070802, 202712.31567637436)",58,B30
T572, 6:19:00, 6:19:00,S28,31,,0,0,B_1,B_2,10210,L16,1,B,1,7662,HUNT VALLEY & LT RAIL STAT nb,,39.496266999999996,-76.653746,,,,,0,0,LR,0,105,56,B31_1,POINT (429784.2629025222 203156.9358683907),429784.2629025222,203156.93586839075,"(429785.22805273614, 203151.9433276975)",59,B31
T708,15:25:00,15:25:00,S28,1,,0,0,B_2,B_1,10210,L23,1,B,2,7662,HUNT VALLEY & LT RAIL STAT nb,,39.496266999999996,-76.653746,,,,,0,0,LR,0,105,56,B31_2,POINT (429784.2629025222 203156.9358683907),429784.2629025222,203156.93586839075,"(429785.22805273614, 203151.9433276975)",60,B31
T708,15:27:00,15:27:00,S47,2,,0,0,B_2,B_1,10210,L23,1,B,2,7661,PEPPER RD & LT RAIL STAT nb,,39.492211,-76.65487399999998,,,,,0,0,LR,0,105,56,B30_2,POINT (429688.9369364635 202706.2509247423),429688.9369364635,202706.25092474226,"(429677.9029070802, 202712.31567637436)",61,B30
T708,15:30:00,15:30:00,S46,3,,0,0,B_2,B_1,10210,L23,1,B,2,7660,McCORMICK RD LIGHT RAIL nb,,39.48995,-76.658265,,,,,0,0,LR,0,105,56,B29_2,POINT (429398.1724265037 202454.1261793211),429398.1724265037,202454.1261793211,"(429423.1133400229, 202433.01353737232)",62,B29
T708,15:32:00,15:32:00,S45,4,,0,0,B_2,B_1,10210,L23,1,B,2,7659,GILROY RD LIGHT RAIL  nb,,39.481590999999995,-76.661789,,,,,0,0,LR,0,105,56,B28_2,POINT (429098.4557302656 201524.9415252402),429098.45573026565,201524.94152524023,"(429096.57953582983, 201566.9024353656)",63,B28
T708,15:34:00,15:34:00,S44,5,,0,0,B_2,B_1,10210,L23,1,B,2,7658,WARREN RD LIT RAIL nb,,39.475603,-76.65351899999997,,,,,0,0,LR,0,105,56,B27_2,POINT (429812.4966355476 200862.7957336526),429812.4966355476,200862.79573365263,"(429850.5981560446, 200889.6976781008)",64,B27
T708,15:39:00,15:39:00,S43,6,,0,0,B_2,B_1,10210,L23,1,B,2,7657,TIMONIUM FAIRGROUNDS LIGHT RAIL STATION nb,,39.448592,-76.634893,,,,,0,0,LR,0,105,56,B26_2,POINT (431427.1316560515 197870.1818032893),431427.1316560515,197870.18180328928,"(431423.1091692422, 197864.39242077988)",65,B26
T708,15:41:00,15:41:00,S42,7,,0,0,B_2,B_1,10210,L23,1,B,2,7656,TIMONIUM BUSINESS PARK,,39.434124,-76.628174,,,,,0,0,LR,0,105,56,B25_2,POINT (432012.0190185143 196266.2378797854),432012.01901851426,196266.23787978545,"(432011.62183758325, 196236.9258229807)",66,B25
T708,15:42:00,15:42:00,S41,8,,0,0,B_2,B_1,10210,L23,1,B,2,7655,LUTHERVILLE & LT RAIL STAT nb,,39.429551000000004,-76.627089,,,,,0,0,LR,0,105,56,B24_2,POINT (432107.5045565507 195758.9131948782),432107.5045565507,195758.9131948782,"(432103.3860308268, 195692.1708182071)",67,B24
T708,15:49:00,15:49:00,S40,9,,0,0,B_2,B_1,10210,L23,1,B,2,7654,FALLS RD & LT RAIL STAT nb,,39.376072,-76.650423,,,,,0,0,LR,0,105,56,B23_2,POINT (430121.2018686021 189813.6447547503),430121.2018686021,189813.6447547503,"(430124.84400466434, 189830.08997964588)",68,B23
T708,15:51:00,15:51:00,S39,10,,0,0,B_2,B_1,10210,L23,1,B,2,7652,MT WASHINGTON & LT RAIL STAT nb,,39.367908,-76.651504,,,,,0,0,LR,0,105,56,B22_2,POINT (430031.5183737414 188906.9183336175),430031.51837374136,188906.91833361748,"(430031.0767678316, 188887.15476078377)",69,B22
T708,15:55:00,15:55:00,S38,11,,0,0,B_2,B_1,10210,L23,1,B,2,7651,COLDSPRING & LIGHT RAIL STAT nb,,39.344153999999996,-76.647801,,,,,0,0,LR,0,105,56,B21_2,POINT (430360.7959605939 186270.9790601667),430360.7959605939,186270.97906016672,"(430353.1555727577, 186262.7340312762)",70,B21
T708,15:57:00,15:57:00,S37,12,,0,0,B_2,B_1,10210,L23,1,B,2,7650,WOODBERRY/LT RAIL  sb,,39.330979,-76.643242,,,,,0,0,LR,0,105,56,B20_2,POINT (430759.5120624278 184809.8282799194),430759.5120624278,184809.8282799194,"(430746.660126861, 184833.20340773516)",71,B20
T708,16:00:00,16:00:00,S36,13,,1,1,B_2,B_1,10210,L23,1,B,2,7649,RELIEF PT/DIVISION,,39.312388,-76.622754,,,,,0,0,LR,0,105,56,B19_2,POINT (432534.4975106292 182752.985585242),432534.49751062924,182752.98558524202,"(432521.08875722904, 182742.0502209645)",72,B19
T708,16:01:00,16:01:00,S27,14,,0,0,B_2,B_1,10210,L23,1,B,2,7648,NORTH AVE LIGHT RAIL  nb,,39.311471999999995,-76.622241,,,,,0,0,LR,0,105,56,B18_2,POINT (432579.1602839306 182651.475929879),432579.1602839306,182651.47592987903,"(432576.6693503497, 182649.02318216284)",73,B18
T708,16:03:00,16:03:00,S35,15,,0,0,B_2,B_1,10210,L23,1,B,2,7646,MT ROYAL & LT RAIL STAT nb,,39.307181,-76.619973,,,,,0,0,LR,0,105,56,B17_2,POINT (432776.7419647634 182175.9093893652),432776.74196476344,182175.9093893652,"(432787.4387650202, 182154.74912950152)",74,B17
T708,16:05:00,16:05:00,S34,16,,0,0,B_2,B_1,10210,L23,1,B,2,7645,CULTURAL CTR & LT RAIL nb,,39.303022,-76.620324,,,,,0,0,LR,0,105,56,B16_2,POINT (432748.3892861285 181714.060010535),432748.38928612845,181714.060010535,"(432737.5272802931, 181754.09297077067)",75,B16
T708,16:08:00,16:08:00,S33,17,,0,0,B_2,B_1,10210,L23,1,B,2,7644,CENTRE ST & LT RAIL STAT nb,,39.296501,-76.619951,,,,,0,0,LR,0,105,56,B15_2,POINT (432783.5755865326 180990.2473919808),432783.5755865326,180990.24739198084,"(432781.20434592833, 180958.93001542622)",76,B15
T708,16:11:00,16:11:00,S32,18,,0,0,B_2,B_1,10210,L23,1,B,2,7643,LEXINGTON ST & LIGHT RAIL STAT nb,,39.291975,-76.619686,,,,,0,0,LR,0,105,56,B14_2,POINT (432808.5280532467 180487.8772728195),432808.5280532467,180487.87727281952,"(432812.6431754387, 180431.94065600715)",77,B14
T708,16:14:00,16:14:00,S31,19,,0,0,B_2,B_1,10210,L23,1,B,2,7642,BALTIMORE ST & LIGHT RAIL STAT nb,,39.289155,-76.619511,,,,,0,0,LR,0,105,56,B13_2,POINT (432824.9295561438 180174.8711064127),432824.9295561438,180174.8711064127,"(432824.93670048466, 180193.85543429622)",78,B13
T708,16:16:00,16:16:00,S30,20,,0,0,B_2,B_1,10210,L23,1,B,2,7641,PRATT ST LIGHT RAIL STAT nb,,39.286263,-76.619375,,,,,0,0,LR,0,105,56,B12_2,POINT (432838.0009269859 179853.8579646453),432838.00092698593,179853.85796464534,"(432840.99549762084, 179859.86548735792)",79,B12
T708,16:18:00,16:18:00,S29,21,,0,0,B_2,B_1,10210,L23,1,B,2,7640,CAMDEN STA/LT RAIL,,39.282038,-76.619426,,,,,0,0,LR,0,105,56,B11_2,POINT (432835.5564148838 179384.7919919196),432835.55641488376,179384.7919919196,"(432851.8070376466, 179336.23341531013)",80,B11
T708,16:20:00,16:20:00,S57,22,,0,0,B_2,B_1,10210,L23,1,B,2,7639,HAMBURG & LIGHT RAIL STAT nb,,39.278425,-76.620326,,,,,0,0,LR,0,105,56,B10_2,POINT (432759.573960531 178983.3639944053),432759.573960531,178983.36399440534,"(432772.883974059, 179019.5005163692)",81,B10
T708,16:22:00,16:22:00,S56,23,,0,0,B_2,B_1,10210,L23,1,B,2,7638,WESTPORT LIGHT RAIL STAT nb,,39.262107,-76.631345,,,,,0,0,LR,0,105,56,B9_2,POINT (431816.1379246935 177167.8950416676),431816.1379246935,177167.89504166762,"(431820.25129139225, 177217.86991167153)",82,B9
T708,16:24:00,16:24:00,S55,24,,0,0,B_2,B_1,10210,L23,1,B,2,7637,CHERRY HILL LIGHT RAIL STAT nb,,39.256034,-76.63489200000002,,,,,0,0,LR,0,105,56,B8_2,POINT (431512.7182954179 176492.4618638701),431512.7182954179,176492.4618638701,"(431489.2221867314, 176518.90125965248)",83,B8
T708,16:26:00,16:26:00,S54,25,,0,0,B_2,B_1,10210,L23,1,B,2,7635,PATAPSCO & LIGHT RAIL STAT nb,,39.242013,-76.629838,,,,,0,0,LR,0,105,56,B7_2,POINT (431955.2417306062 174937.6617364841),431955.24173060624,174937.66173648412,"(431954.9353804292, 174970.63275574095)",84,B7
T708,16:28:00,16:28:00,S53,26,,0,0,B_2,B_1,10210,L23,1,B,2,7634,BATIMORE HIGHLANDS & LT RAIL nb,,39.234256,-76.633123,,,,,0,0,LR,0,105,56,B6_2,POINT (431675.1175715986 174075.3675318806),431675.1175715986,174075.36753188065,"(431669.2643169875, 174092.44069826655)",85,B6
T708,16:31:00,16:31:00,S52,27,,0,0,B_2,B_1,10210,L23,1,B,2,7632,NURSERY RD & LIGHT RAIL nb,,39.222291,-76.64094300000002,,,,,0,0,LR,0,105,56,B5_2,POINT (431005.1890286337 172744.382501001),431005.1890286337,172744.38250100103,"(431072.071717888, 172929.93334291328)",86,B5
T708,16:33:00,16:33:00,S51,28,,0,0,B_2,B_1,10210,L23,1,B,2,7631,NORTH LINTHICUM LT RAIL nb,,39.214389000000004,-76.645586,,,,,0,0,LR,0,105,56,B4_2,POINT (430607.6658063255 171865.5734366617),430607.6658063255,171865.57343666165,"(430649.99108677247, 171996.8487115497)",87,B4
T708,16:37:00,16:37:00,S50,29,,0,0,B_2,B_1,10210,L23,1,B,2,7630,LINTHICUM LT RAIL nb,,39.202261,-76.655047,,,,,0,0,LR,0,105,56,B3_2,POINT (429795.6928111051 170516.0541569358),429795.6928111051,170516.0541569358,"(429752.36354826274, 170484.69494938263)",88,B3
T708,16:42:00,16:42:00,S59,30,,0,0,B_2,B_1,10210,L23,1,B,2,7628,BWI BUSINESS PARK STATION,,39.191594,-76.673937,,,,,0,0,LR,0,105,56,B2_2,POINT (428168.2852370862 169325.8635961327),428168.28523708624,169325.86359613272,"(428108.20379364083, 169312.99340688813)",89,B2
T708,16:45:00,16:45:00,S58,31,,0,0,B_2,B_1,10210,L23,1,B,2,7627,BWI AIRPORT LT RAIL nb,,39.181298,-76.668468,,,,,0,0,LR,0,105,56,B1_2,POINT (428644.896159993 168184.5613366047),428644.89615999296,168184.56133660467,"(428640.91807569575, 168185.54603148642)",90,B1
T1273,15:30:00,15:30:00,S105,1,,0,0,C_1,C_2,10222,L51,1,C,1,11958,UNION STATION MARC Washington,,38.899035999999995,-77.006795,,,,,0,2,HR,1,1920,142,C1_1,POINT (399410.5674744107 136798.3116031561),399410.5674744107,136798.31160315612,"(399421.4972030664, 136796.3126532078)",118,C1/D1/F1
T1273,15:44:00,15:44:00,S113,2,,0,0,C_1,C_2,10222,L51,1,C,1,11959,SILVER SPRING MARC wb,,38.994459,-77.030698,,,,,0,2,HR,1,1920,142,C2_1,POINT (397340.6629984517 147391.54814814),397340.66299845173,147391.54814814005,"(397280.7012667595, 147349.4957311917)",119,C2
T1273,15:50:00,15:50:00,S114,3,,0,0,C_1,C_2,10222,L51,1,C,1,11960,KENSINGTON MARC wb,,39.027125,-77.072188,,,,,0,2,HR,1,1920,142,C3_1,POINT (393749.2939112979 151019.8390828975),393749.2939112979,151019.8390828975,"(393767.2970352123, 151010.38894481777)",120,C3
T1273,15:59:00,15:59:00,S116,4,,0,0,C_1,C_2,10222,L51,1,C,1,11962,ROCKVILLE MARC wb,,39.085198,-77.14699300000002,,,,,0,2,HR,1,1920,142,C4_1,POINT (387282.3684889557 157474.379706794),387282.36848895566,157474.37970679405,"(387273.1381947407, 157491.26846343192)",121,C4
T1273,16:06:00,16:06:00,S118,5,,0,0,C_1,C_2,10222,L51,1,C,1,11964,GAITHERSBURG MARC wb,,39.141532,-77.193339,,,,,0,2,HR,1,1920,142,C5_1,POINT (383285.8266703686 163735.6483473285),383285.8266703686,163735.6483473285,"(383272.7769621756, 163737.67424900783)",122,C5
T1273,16:09:00,16:09:00,S119,6,,0,0,C_1,C_2,10222,L51,1,C,1,11965,METROPOLITAN GROVE MARC wb,,39.149791,-77.22711,,,,,0,2,HR,1,1920,142,C6_1,POINT (380368.6073614568 164659.2327034266),380368.60736145684,164659.23270342656,"(380380.69486245397, 164653.54090755153)",123,C6
T1273,16:16:00,16:16:00,S120,7,,0,0,C_1,C_2,10222,L51,1,C,1,11966,GERMANTOWN MARC wb,,39.172523,-77.269566,,,,,0,2,HR,1,1920,142,C7_1,POINT (376706.1716251122 167192.7836865127),376706.17162511224,167192.78368651273,"(376729.99418046884, 167183.49911715483)",124,C7
T1273,16:26:00,16:26:00,S122,8,,1,0,C_1,C_2,10222,L51,1,C,1,11968,BARNESVILLE MARC wb,,39.209542,-77.382234,,,,,0,2,HR,1,1920,142,C8_1,POINT (366987.5223671285 171337.1779606781),366987.5223671285,171337.17796067812,"(367006.90938670526, 171346.86628416448)",125,C8
T1273,16:37:00,16:37:00,S124,9,,1,0,C_1,C_2,10222,L51,1,C,1,11970,POINT OF ROCKS MARC wb,,39.273493,-77.53336999999998,,,,,0,2,HR,1,1920,142,C9_1,POINT (353975.9384763497 178502.151667154),353975.9384763497,178502.15166715396,"(353998.196416853, 178471.7132743393)",126,C9
T1273,16:51:00,16:51:00,S125,10,,0,0,C_1,C_2,10222,L51,1,C,1,11973,BRUNSWICK MD MARC wb,,39.311949,-77.627027,,,,,0,2,HR,1,1920,142,C10_1,POINT (345923.7942531794 182822.7398407495),345923.7942531794,182822.7398407495,"(345910.55439879594, 182816.2805125533)",127,C10
T1273,17:10:00,17:10:00,S126,11,,0,0,C_1,C_2,10222,L51,1,C,1,11974,HARPERS FERRY W VA MARC wb,,39.324586,-77.730548,,,,,0,2,HR,1,1920,142,C11_1,POINT (337007.3167860184 184292.030114657),337007.3167860184,184292.03011465704,"(337013.1214393992, 184284.65614090202)",128,C11
T1273,17:25:00,17:25:00,S127,12,,0,0,C_1,C_2,10222,L51,1,C,1,11975,DUFFIELFS W VA MARC wb,,39.362352,-77.82666,,,,,0,2,HR,1,1920,142,C12_1,POINT (328758.0845816873 188555.3295575604),328758.08458168735,188555.32955756038,"(328729.70553147676, 188543.1517580024)",129,C12
T1273,17:30:00,17:30:00,S94,13,,0,0,C_1,C_2,10222,L51,1,C,1,11940,MARTINSBURG W VA MARC,,39.461113,-77.96165500000002,,,,,0,2,HR,1,1920,142,C13_1,POINT (317240.0601073015 199633.381007222),317240.06010730145,199633.38100722202,"(317239.4623884213, 199633.83142668864)",130,C13
T1262, 5:25:00, 5:25:00,S94,1,,0,0,C_2,C_1,10222,L40,1,C,2,11940,MARTINSBURG W VA MARC,,39.461113,-77.96165500000002,,,,,0,2,HR,1,1920,142,C13_2,POINT (317240.0601073015 199633.381007222),317240.06010730145,199633.38100722202,"(317239.4623884213, 199633.83142668864)",91,C13
T1262, 5:41:00, 5:41:00,S127,2,,0,0,C_2,C_1,10222,L40,1,C,2,11975,DUFFIELFS W VA MARC wb,,39.362352,-77.82666,,,,,0,2,HR,1,1920,142,C12_2,POINT (328758.0845816873 188555.3295575604),328758.08458168735,188555.32955756038,"(328729.70553147676, 188543.1517580024)",92,C12
T1262, 5:50:00, 5:50:00,S126,3,,0,0,C_2,C_1,10222,L40,1,C,2,11974,HARPERS FERRY W VA MARC wb,,39.324586,-77.730548,,,,,0,2,HR,1,1920,142,C11_2,POINT (337007.3167860184 184292.030114657),337007.3167860184,184292.03011465704,"(337013.1214393992, 184284.65614090202)",93,C11
T1262, 6:05:00, 6:05:00,S125,4,,0,0,C_2,C_1,10222,L40,1,C,2,11973,BRUNSWICK MD MARC wb,,39.311949,-77.627027,,,,,0,2,HR,1,1920,142,C10_2,POINT (345923.7942531794 182822.7398407495),345923.7942531794,182822.7398407495,"(345910.55439879594, 182816.2805125533)",94,C10
T1262, 6:15:00, 6:15:00,S124,5,,0,0,C_2,C_1,10222,L40,1,C,2,11970,POINT OF ROCKS MARC wb,,39.273493,-77.53336999999998,,,,,0,2,HR,1,1920,142,C9_2,POINT (353975.9384763497 178502.151667154),353975.9384763497,178502.15166715396,"(353998.196416853, 178471.7132743393)",95,C9
T1262, 6:25:00, 6:25:00,S122,6,,0,0,C_2,C_1,10222,L40,1,C,2,11968,BARNESVILLE MARC wb,,39.209542,-77.382234,,,,,0,2,HR,1,1920,142,C8_2,POINT (366987.5223671285 171337.1779606781),366987.5223671285,171337.17796067812,"(367006.90938670526, 171346.86628416448)",96,C8
T1262, 6:35:00, 6:35:00,S120,7,,0,0,C_2,C_1,10222,L40,1,C,2,11966,GERMANTOWN MARC wb,,39.172523,-77.269566,,,,,0,2,HR,1,1920,142,C7_2,POINT (376706.1716251122 167192.7836865127),376706.17162511224,167192.78368651273,"(376729.99418046884, 167183.49911715483)",97,C7
T1262, 6:41:00, 6:41:00,S119,8,,0,0,C_2,C_1,10222,L40,1,C,2,11965,METROPOLITAN GROVE MARC wb,,39.149791,-77.22711,,,,,0,2,HR,1,1920,142,C6_2,POINT (380368.6073614568 164659.2327034266),380368.60736145684,164659.23270342656,"(380380.69486245397, 164653.54090755153)",98,C6
T1262, 6:47:00, 6:47:00,S118,9,,0,0,C_2,C_1,10222,L40,1,C,2,11964,GAITHERSBURG MARC wb,,39.141532,-77.193339,,,,,0,2,HR,1,1920,142,C5_2,POINT (383285.8266703686 163735.6483473285),383285.8266703686,163735.6483473285,"(383272.7769621756, 163737.67424900783)",99,C5
T1262, 6:55:00, 6:55:00,S116,10,,0,0,C_2,C_1,10222,L40,1,C,2,11962,ROCKVILLE MARC wb,,39.085198,-77.14699300000002,,,,,0,2,HR,1,1920,142,C4_2,POINT (387282.3684889557 157474.379706794),387282.36848895566,157474.37970679405,"(387273.1381947407, 157491.26846343192)",100,C4
T1262, 7:02:00, 7:02:00,S114,11,,0,0,C_2,C_1,10222,L40,1,C,2,11960,KENSINGTON MARC wb,,39.027125,-77.072188,,,,,0,2,HR,1,1920,142,C3_2,POINT (393749.2939112979 151019.8390828975),393749.2939112979,151019.8390828975,"(393767.2970352123, 151010.38894481777)",101,C3
T1262, 7:13:00, 7:13:00,S113,12,,0,0,C_2,C_1,10222,L40,1,C,2,11959,SILVER SPRING MARC wb,,38.994459,-77.030698,,,,,0,2,HR,1,1920,142,C2_2,POINT (397340.6629984517 147391.54814814),397340.66299845173,147391.54814814005,"(397280.7012667595, 147349.4957311917)",102,C2
T1262, 7:35:00, 7:35:00,S105,13,,0,0,C_2,C_1,10222,L40,1,C,2,11958,UNION STATION MARC Washington,,38.899035999999995,-77.006795,,,,,0,2,HR,1,1920,142,C1_2,POINT (399410.5674744107 136798.3116031561),399410.5674744107,136798.31160315612,"(399421.4972030664, 136796.3126532078)",103,C1/D1/F1
T1311,21:00:00,21:00:00,S105,1,,0,0,D_1,D_2,10223,L89,1,D,1,11958,UNION STATION MARC Washington,,38.899035999999995,-77.006795,,,,,0,2,HR,1,1920,142,D1_1,POINT (399410.5674744107 136798.3116031561),399410.5674744107,136798.31160315612,"(399421.4972030664, 136796.3126532078)",144,C1/D1/F1
T1311,21:11:00,21:11:00,S142,2,,0,0,D_1,D_2,10223,L89,1,D,1,11989,NEW CARROLLTON MARC nb,,38.946969,-76.873141,,,,,0,2,HR,1,1920,142,D2_1,POINT (410996.9908223976 142126.9003815234),410996.99082239764,142126.9003815234,"(410703.6194428319, 141823.55441286037)",145,D2
T1311,21:15:00,21:15:00,S143,3,,0,0,D_1,D_2,10223,L89,1,D,1,11990,SEABROOK MARC nb,,38.973444,-76.842772,,,,,0,2,HR,1,1920,142,D3_1,POINT (413624.5156757485 145069.9628532581),413624.51567574847,145069.96285325813,"(413594.396944669, 145048.37514899435)",146,D3
T1311,21:21:00,21:21:00,S144,4,,0,0,D_1,D_2,10223,L89,1,D,1,11991,BOWIE STATE MARC nb,,39.020792,-76.762049,,,,,0,2,HR,1,1920,142,D4_1,POINT (420605.8142658772 150341.1920255015),420605.81426587724,150341.1920255015,"(420596.2344269086, 150328.73382413946)",147,D4
T1311,21:28:00,21:28:00,S145,5,,0,0,D_1,D_2,10223,L89,1,D,1,11992,ODENTON MARC nb,,39.086859999999994,-76.706099,,,,,0,2,HR,1,1920,142,D5_1,POINT (425427.2820007809 157689.5744431393),425427.28200078086,157689.5744431393,"(425311.9326374594, 157480.49972842218)",148,D5
T1311,21:37:00,21:37:00,S146,6,,0,0,D_1,D_2,10223,L89,1,D,1,11993,BWI RAIL STATION MARC nb,,39.192327,-76.69456,,,,,0,2,HR,1,1920,142,D6_1,POINT (426386.4176782456 169401.0750681441),426386.4176782456,169401.0750681441,"(426341.98049903, 169514.4957877349)",149,D6
T1311,21:42:00,21:42:00,S147,7,,0,0,D_1,D_2,10223,L89,1,D,1,11994,HALETHORPE MARC nb,,39.23878,-76.69119599999998,,,,,0,2,HR,1,1920,142,D7_1,POINT (426659.5817742333 174559.0485796103),426659.58177423326,174559.0485796103,"(426662.72350684105, 174549.06764816836)",150,D7
T1311,21:49:00,21:49:00,S148,8,,0,0,D_1,D_2,10223,L89,1,D,1,11995,WEST BALTIMORE MARC nb,,39.293344,-76.653102,,,,,0,2,HR,1,1920,142,D8_1,POINT (429925.2687219129 180628.3785092468),429925.2687219129,180628.37850924683,"(429901.3815002631, 180603.41945992532)",151,D8
T1311,22:00:00,22:00:00,S149,9,,0,0,D_1,D_2,10223,L89,1,D,1,12002,PENN STATION MARC nb,,39.307177,-76.615903,,,,,0,2,HR,1,1920,142,D9_1,POINT (433127.7729884011 182176.9344586478),433127.77298840106,182176.93445864777,"(433157.98801563354, 182231.79446523223)",152,D9
T1311,22:12:00,22:12:00,S150,10,,0,0,D_1,D_2,10223,L89,1,D,1,12003,MARTIN AIRPORT MARC nb,,39.338324,-76.41930699999998,,,,,0,2,HR,1,1920,142,D10_1,POINT (450061.6883893152 185724.388178908),450061.68838931515,185724.388178908,"(450214.3464045383, 185809.29357111096)",153,D10
T1311,22:27:00,22:27:00,S151,11,,0,0,D_1,D_2,10223,L89,1,D,1,12004,EDGEWOOD MARC nb,,39.415966999999995,-76.292139,,,,,0,2,HR,1,1920,142,D11_1,POINT (460957.8334027427 194421.5349595272),460957.83340274275,194421.53495952723,"(460958.44227624685, 194442.96772421923)",154,D11
T1311,22:38:00,22:38:00,S152,12,,0,0,D_1,D_2,10223,L89,1,D,1,12005,ABERDEEN MARC nb,,39.509146,-76.162588,,,,,0,2,HR,1,1920,142,D12_1,POINT (472019.0018339235 204860.6828061696),472019.0018339235,204860.68280616959,"(472029.257742231, 204849.0075995392)",155,D12
T1311,22:50:00,22:50:00,S139,13,,0,0,D_1,D_2,10223,L89,1,D,1,11976,PERRYVILLE MARC,,39.558089,-76.07318000000002,,,,,0,2,HR,1,1920,142,D13_1,POINT (479652.8372915553 210368.7190146802),479652.8372915553,210368.71901468016,"(479645.87086506374, 210377.64205573493)",156,D13
T1297, 5:45:00, 5:45:00,S139,1,,0,0,D_2,D_1,10223,L75,1,D,2,11976,PERRYVILLE MARC,,39.558089,-76.07318000000002,,,,,0,2,HR,1,1920,142,D13_2,POINT (479652.8372915553 210368.7190146802),479652.8372915553,210368.71901468016,"(479645.87086506374, 210377.64205573493)",131,D13
T1297, 5:53:00, 5:53:00,S152,2,,0,0,D_2,D_1,10223,L75,1,D,2,12005,ABERDEEN MARC nb,,39.509146,-76.162588,,,,,0,2,HR,1,1920,142,D12_2,POINT (472019.0018339235 204860.6828061696),472019.0018339235,204860.68280616959,"(472029.257742231, 204849.0075995392)",132,D12
T1297, 6:03:00, 6:03:00,S151,3,,0,0,D_2,D_1,10223,L75,1,D,2,12004,EDGEWOOD MARC nb,,39.415966999999995,-76.292139,,,,,0,2,HR,1,1920,142,D11_2,POINT (460957.8334027427 194421.5349595272),460957.83340274275,194421.53495952723,"(460958.44227624685, 194442.96772421923)",133,D11
T1297, 6:15:00, 6:15:00,S150,4,,0,0,D_2,D_1,10223,L75,1,D,2,12003,MARTIN AIRPORT MARC nb,,39.338324,-76.41930699999998,,,,,0,2,HR,1,1920,142,D10_2,POINT (450061.6883893152 185724.388178908),450061.68838931515,185724.388178908,"(450214.3464045383, 185809.29357111096)",134,D10
T1297, 6:30:00, 6:30:00,S149,5,,0,0,D_2,D_1,10223,L75,1,D,2,12002,PENN STATION MARC nb,,39.307177,-76.615903,,,,,0,2,HR,1,1920,142,D9_2,POINT (433127.7729884011 182176.9344586478),433127.77298840106,182176.93445864777,"(433157.98801563354, 182231.79446523223)",135,D9
T1297, 6:39:00, 6:39:00,S148,6,,0,0,D_2,D_1,10223,L75,1,D,2,11995,WEST BALTIMORE MARC nb,,39.293344,-76.653102,,,,,0,2,HR,1,1920,142,D8_2,POINT (429925.2687219129 180628.3785092468),429925.2687219129,180628.37850924683,"(429901.3815002631, 180603.41945992532)",136,D8
T1297, 6:46:00, 6:46:00,S147,7,,0,0,D_2,D_1,10223,L75,1,D,2,11994,HALETHORPE MARC nb,,39.23878,-76.69119599999998,,,,,0,2,HR,1,1920,142,D7_2,POINT (426659.5817742333 174559.0485796103),426659.58177423326,174559.0485796103,"(426662.72350684105, 174549.06764816836)",137,D7
T1297, 6:54:00, 6:54:00,S146,8,,0,0,D_2,D_1,10223,L75,1,D,2,11993,BWI RAIL STATION MARC nb,,39.192327,-76.69456,,,,,0,2,HR,1,1920,142,D6_2,POINT (426386.4176782456 169401.0750681441),426386.4176782456,169401.0750681441,"(426341.98049903, 169514.4957877349)",138,D6
T1297, 7:02:00, 7:02:00,S145,9,,0,0,D_2,D_1,10223,L75,1,D,2,11992,ODENTON MARC nb,,39.086859999999994,-76.706099,,,,,0,2,HR,1,1920,142,D5_2,POINT (425427.2820007809 157689.5744431393),425427.28200078086,157689.5744431393,"(425311.9326374594, 157480.49972842218)",139,D5
T1297, 7:09:00, 7:09:00,S144,10,,0,0,D_2,D_1,10223,L75,1,D,2,11991,BOWIE STATE MARC nb,,39.020792,-76.762049,,,,,0,2,HR,1,1920,142,D4_2,POINT (420605.8142658772 150341.1920255015),420605.81426587724,150341.1920255015,"(420596.2344269086, 150328.73382413946)",140,D4
T1297, 7:17:00, 7:17:00,S143,11,,0,0,D_2,D_1,10223,L75,1,D,2,11990,SEABROOK MARC nb,,38.973444,-76.842772,,,,,0,2,HR,1,1920,142,D3_2,POINT (413624.5156757485 145069.9628532581),413624.51567574847,145069.96285325813,"(413594.396944669, 145048.37514899435)",141,D3
T1297, 7:21:00, 7:21:00,S142,12,,0,0,D_2,D_1,10223,L75,1,D,2,11989,NEW CARROLLTON MARC nb,,38.946969,-76.873141,,,,,0,2,HR,1,1920,142,D2_2,POINT (410996.9908223976 142126.9003815234),410996.99082239764,142126.9003815234,"(410703.6194428319, 141823.55441286037)",142,D2
T1297, 7:36:00, 7:36:00,S105,13,,0,0,D_2,D_1,10223,L75,1,D,2,11958,UNION STATION MARC Washington,,38.899035999999995,-77.006795,,,,,0,2,HR,1,1920,142,D1_2,POINT (399410.5674744107 136798.3116031561),399410.5674744107,136798.31160315612,"(399421.4972030664, 136796.3126532078)",143,C1/D1/F1
T1378,16:13:00,16:13:00,S105,1,,0,0,F_1,F_2,10224,L153,1,F,1,11958,UNION STATION MARC Washington,,38.899035999999995,-77.006795,,,,,0,2,HR,1,1920,142,F1_1,POINT (399410.5674744107 136798.3116031561),399410.5674744107,136798.31160315612,"(399412.56253614073, 136797.3123829343)",22,C1/D1/F1
T1378,16:24:00,16:24:00,S165,2,,0,0,F_1,F_2,10224,L153,1,F,1,12018,COLLEGE PARK MARC nb,,38.976141,-76.929389,,,,,0,2,HR,1,1920,142,F2_1,POINT (406118.5326118778 145359.9891687792),406118.53261187783,145359.98916877917,"(406088.16595408396, 145297.6893225198)",23,F2
T1378,16:32:00,16:32:00,S167,3,,0,0,F_1,F_2,10224,L153,1,F,1,12020,MUIRKIRK MARC nb,,39.062044,-76.884971,,,,,0,2,HR,1,1920,142,F3_1,POINT (409955.3908296323 154900.0415560343),409955.39082963235,154900.04155603432,"(409949.4154694712, 154902.92033500993)",24,F3
T1378,16:39:00,16:39:00,S168,4,,0,0,F_1,F_2,10224,L153,1,F,1,12021,LAUREL MARC nb,,39.101817,-76.842109,,,,,0,2,HR,1,1920,142,F4_1,POINT (413657.3195900083 159320.8681548828),413657.3195900083,159320.86815488283,"(413658.0667761808, 159338.96454772475)",25,F4
T1378,16:45:00,16:45:00,S169,5,,0,0,F_1,F_2,10224,L153,1,F,1,12023,SAVAGE MARC nb,,39.122855,-76.796351,,,,,0,2,HR,1,1920,142,F5_1,POINT (417610.0976794766 161664.1915149188),417610.0976794766,161664.19151491876,"(417616.23352147156, 161665.87040880424)",26,F5
T1378,16:57:00,16:57:00,S170,6,,0,0,F_1,F_2,10224,L153,1,F,1,12025,DORSEY MARC nb,,39.181267999999996,-76.745121,,,,,0,2,HR,1,1920,142,F6_1,POINT (422021.9832009469 168159.9589569569),422021.98320094694,168159.9589569569,"(422054.687359738, 168236.87298714605)",27,F6
T1378,17:25:00,17:25:00,S153,7,,0,0,F_1,F_2,10224,L153,1,F,1,12006,CAMDEN STATION MARC,,39.283877000000004,-76.619664,,,,,0,2,HR,1,1920,142,F7_1,POINT (432814.1715234702 179588.8669551825),432814.1715234702,179588.86695518252,"(432841.3766208235, 179561.5586282201)",28,F7
T1367, 7:10:00, 7:10:00,S153,1,,0,0,F_2,F_1,10224,L143,1,F,2,12006,CAMDEN STATION MARC,,39.283877000000004,-76.619664,,,,,0,2,HR,1,1920,142,F7_2,POINT (432814.1715234702 179588.8669551825),432814.1715234702,179588.86695518252,"(432841.3766208235, 179561.5586282201)",15,F7
T1367, 7:29:00, 7:29:00,S170,2,,0,0,F_2,F_1,10224,L143,1,F,2,12025,DORSEY MARC nb,,39.181267999999996,-76.745121,,,,,0,2,HR,1,1920,142,F6_2,POINT (422021.9832009469 168159.9589569569),422021.98320094694,168159.9589569569,"(422054.687359738, 168236.87298714605)",16,F6
T1367, 7:37:00, 7:37:00,S169,3,,0,0,F_2,F_1,10224,L143,1,F,2,12023,SAVAGE MARC nb,,39.122855,-76.796351,,,,,0,2,HR,1,1920,142,F5_2,POINT (417610.0976794766 161664.1915149188),417610.0976794766,161664.19151491876,"(417616.23352147156, 161665.87040880424)",17,F5
T1367, 7:44:00, 7:44:00,S168,4,,0,0,F_2,F_1,10224,L143,1,F,2,12021,LAUREL MARC nb,,39.101817,-76.842109,,,,,0,2,HR,1,1920,142,F4_2,POINT (413657.3195900083 159320.8681548828),413657.3195900083,159320.86815488283,"(413658.0667761808, 159338.96454772475)",18,F4
T1367, 7:49:00, 7:49:00,S167,5,,0,0,F_2,F_1,10224,L143,1,F,2,12020,MUIRKIRK MARC nb,,39.062044,-76.884971,,,,,0,2,HR,1,1920,142,F3_2,POINT (409955.3908296323 154900.0415560343),409955.39082963235,154900.04155603432,"(409949.4154694712, 154902.92033500993)",19,F3
T1367, 8:01:00, 8:01:00,S165,6,,0,0,F_2,F_1,10224,L143,1,F,2,12018,COLLEGE PARK MARC nb,,38.976141,-76.929389,,,,,0,2,HR,1,1920,142,F2_2,POINT (406118.5326118778 145359.9891687792),406118.53261187783,145359.98916877917,"(406088.16595408396, 145297.6893225198)",20,F2
T1367, 8:21:00, 8:21:00,S105,7,,0,0,F_2,F_1,10224,L143,1,F,2,11958,UNION STATION MARC Washington,,38.899035999999995,-77.006795,,,,,0,2,HR,1,1920,142,F1_2,POINT (399410.5674744107 136798.3116031561),399410.5674744107,136798.31160315612,"(399412.56253614073, 136797.3123829343)",21,C1/D1/F1
