stop_id,stop_code,stop_name,stop_lat,stop_lon,EZLink_Name,Type,stopType
A1,A1,JOHNS HOPKINS STATION (METRO),39.2982889999998,-76.594107,STN_JOHNS HOPKINS STATION (METRO),2,2
A2,A2,SHOT TOWER STATION (METRO) nb,39.2899519999998,-76.605814,STN_SHOT TOWER STATION (METRO) nb,2,2
A3,A3,CHARLES CENTER (METRO) nb,39.2894519999998,-76.616275,STN_CHARLES CENTER (METRO) nb,2,2
A4,A4,LEXINGTON MARKET (METRO) nb,39.2917299999998,-76.620914,STN_LEXINGTON MARKET (METRO) nb,2,2
A5,A5,STATE CENTER (METRO) nb,39.3015149999998,-76.623166,STN_STATE CENTER (METRO) nb,2,2
A6,A6,UPTON STATION (METRO) nb,39.3053179999998,-76.63672,STN_UPTON STATION (METRO) nb,2,2
A7,A7,PENN NORTH STAT (METRO) nb,39.3101949999998,-76.64259,STN_PENN NORTH STAT (METRO) nb,2,2
A8,A8,MONDAWMIN STATION (METRO) nb,39.3182109999998,-76.652759,STN_MONDAWMIN STATION (METRO) nb,2,2
A9,A9,WEST COLDSPRING STATION (METRO) nb,39.3364639999998,-76.672632,STN_WEST COLDSPRING STATION (METRO) nb,2,2
A10,A10,ROGERS STATION (METRO) nb,39.3463359999998,-76.694382,STN_ROGERS STATION (METRO) nb,2,2
A11,A11,REIST PLAZA STATION (METRO) nb,39.3525889999998,-76.706095,STN_REIST PLAZA STATION (METRO) nb,2,2
A12,A12,MILFORD MILL STATION (METRO) nb,39.3627769999998,-76.721459,STN_MILFORD MILL STATION (METRO) nb,2,2
A13,A13,OLD COURT STATION (METRO) nb,39.3710029999998,-76.743665,STN_OLD COURT STATION (METRO) nb,2,2
A14,A14,OWINGS MILLS STATION (METRO),39.4076419999998,-76.780768,STN_OWINGS MILLS STATION (METRO),2,2
B1,B1,BWI AIRPORT LT RAIL nb,39.1812979999998,-76.668468,STN_BWI AIRPORT LT RAIL nb,2,2
B2,B2,BWI BUSINESS PARK STATION,39.1915939999998,-76.673937,STN_BWI BUSINESS PARK STATION,2,2
B3,B3,LINTHICUM LT RAIL nb,39.2022609999998,-76.655047,STN_LINTHICUM LT RAIL nb,2,2
B4,B4,NORTH LINTHICUM LT RAIL nb,39.2143889999998,-76.645586,STN_NORTH LINTHICUM LT RAIL nb,2,2
B5,B5,NURSERY RD & LIGHT RAIL nb,39.2222909999998,-76.640943,STN_NURSERY RD & LIGHT RAIL nb,2,2
B6,B6,BATIMORE HIGHLANDS & LT RAIL nb,39.2342559999998,-76.633123,STN_BATIMORE HIGHLANDS & LT RAIL nb,2,2
B7,B7,PATAPSCO & LIGHT RAIL STAT nb,39.2420129999998,-76.629838,STN_PATAPSCO & LIGHT RAIL STAT nb,2,2
B8,B8,CHERRY HILL LIGHT RAIL STAT nb,39.2560339999998,-76.634892,STN_CHERRY HILL LIGHT RAIL STAT nb,2,2
B9,B9,WESTPORT LIGHT RAIL STAT nb,39.2621069999998,-76.631345,STN_WESTPORT LIGHT RAIL STAT nb,2,2
B10,B10,HAMBURG & LIGHT RAIL STAT nb,39.2784249999998,-76.620326,STN_HAMBURG & LIGHT RAIL STAT nb,2,2
B11,B11,CAMDEN STA/LT RAIL,39.2820379999998,-76.619426,STN_CAMDEN STA/LT RAIL,2,2
B12,B12,PRATT ST LIGHT RAIL STAT nb,39.2862629999998,-76.619375,STN_PRATT ST LIGHT RAIL STAT nb,2,2
B13,B13,BALTIMORE ST & LIGHT RAIL STAT nb,39.2891549999998,-76.619511,STN_BALTIMORE ST & LIGHT RAIL STAT nb,2,2
B14,B14,LEXINGTON ST & LIGHT RAIL STAT nb,39.2919749999998,-76.619686,STN_LEXINGTON ST & LIGHT RAIL STAT nb,2,2
B15,B15,CENTRE ST & LT RAIL STAT nb,39.2965009999998,-76.619951,STN_CENTRE ST & LT RAIL STAT nb,2,2
B16,B16,CULTURAL CTR & LT RAIL nb,39.3030219999998,-76.620324,STN_CULTURAL CTR & LT RAIL nb,2,2
B17,B17,MT ROYAL & LT RAIL STAT nb,39.3071809999998,-76.619973,STN_MT ROYAL & LT RAIL STAT nb,2,2
B18,B18,NORTH AVE LIGHT RAIL  nb,39.3114719999998,-76.622241,STN_NORTH AVE LIGHT RAIL  nb,2,2
B19,B19,RELIEF PT/DIVISION,39.3123879999998,-76.622754,STN_RELIEF PT/DIVISION,2,2
B20,B20,WOODBERRY/LT RAIL  sb,39.3309789999998,-76.643242,STN_WOODBERRY/LT RAIL  sb,2,2
B21,B21,COLDSPRING & LIGHT RAIL STAT nb,39.3441539999998,-76.647801,STN_COLDSPRING & LIGHT RAIL STAT nb,2,2
B22,B22,MT WASHINGTON & LT RAIL STAT nb,39.3679079999998,-76.651504,STN_MT WASHINGTON & LT RAIL STAT nb,2,2
B23,B23,FALLS RD & LT RAIL STAT nb,39.3760719999998,-76.650423,STN_FALLS RD & LT RAIL STAT nb,2,2
B24,B24,LUTHERVILLE & LT RAIL STAT nb,39.4295509999998,-76.627089,STN_LUTHERVILLE & LT RAIL STAT nb,2,2
B25,B25,TIMONIUM BUSINESS PARK,39.4341239999998,-76.628174,STN_TIMONIUM BUSINESS PARK,2,2
B26,B26,TIMONIUM FAIRGROUNDS LIGHT RAIL STATION nb,39.4485919999998,-76.634893,STN_TIMONIUM FAIRGROUNDS LIGHT RAIL STATION nb,2,2
B27,B27,WARREN RD LIT RAIL nb,39.4756029999998,-76.653519,STN_WARREN RD LIT RAIL nb,2,2
B28,B28,GILROY RD LIGHT RAIL  nb,39.4815909999998,-76.661789,STN_GILROY RD LIGHT RAIL  nb,2,2
B29,B29,McCORMICK RD LIGHT RAIL nb,39.4899499999998,-76.658265,STN_McCORMICK RD LIGHT RAIL nb,2,2
B30,B30,PEPPER RD & LT RAIL STAT nb,39.4922109999998,-76.654874,STN_PEPPER RD & LT RAIL STAT nb,2,2
B31,B31,HUNT VALLEY & LT RAIL STAT nb,39.4962669999998,-76.653746,STN_HUNT VALLEY & LT RAIL STAT nb,2,2
C1/D1/F1,C1/D1/F1,UNION STATION MARC Washington,38.8990359999998,-77.006795,STN_UNION STATION MARC Washington,2,2
C2,C2,SILVER SPRING MARC wb,38.9944589999998,-77.030698,STN_SILVER SPRING MARC wb,2,2
C3,C3,KENSINGTON MARC wb,39.0271249999998,-77.072188,STN_KENSINGTON MARC wb,2,2
C4,C4,ROCKVILLE MARC wb,39.0851979999998,-77.146993,STN_ROCKVILLE MARC wb,2,2
C5,C5,GAITHERSBURG MARC wb,39.1415319999998,-77.193339,STN_GAITHERSBURG MARC wb,2,2
C6,C6,METROPOLITAN GROVE MARC wb,39.1497909999998,-77.22711,STN_METROPOLITAN GROVE MARC wb,2,2
C7,C7,GERMANTOWN MARC wb,39.1725229999998,-77.269566,STN_GERMANTOWN MARC wb,2,2
C8,C8,BARNESVILLE MARC wb,39.2095419999998,-77.382234,STN_BARNESVILLE MARC wb,2,2
C9,C9,POINT OF ROCKS MARC wb,39.2734929999998,-77.53337,STN_POINT OF ROCKS MARC wb,2,2
C10,C10,BRUNSWICK MD MARC wb,39.3119489999998,-77.627027,STN_BRUNSWICK MD MARC wb,2,2
C11,C11,HARPERS FERRY W VA MARC wb,39.3245859999998,-77.730548,STN_HARPERS FERRY W VA MARC wb,2,2
C12,C12,DUFFIELFS W VA MARC wb,39.3623519999998,-77.82666,STN_DUFFIELFS W VA MARC wb,2,2
C13,C13,MARTINSBURG W VA MARC,39.4611129999998,-77.961655,STN_MARTINSBURG W VA MARC,2,2
D2,D2,NEW CARROLLTON MARC nb,38.9469689999998,-76.873141,STN_NEW CARROLLTON MARC nb,2,2
D3,D3,SEABROOK MARC nb,38.9734439999998,-76.842772,STN_SEABROOK MARC nb,2,2
D4,D4,BOWIE STATE MARC nb,39.0207919999998,-76.762049,STN_BOWIE STATE MARC nb,2,2
D5,D5,ODENTON MARC nb,39.0868599999998,-76.706099,STN_ODENTON MARC nb,2,2
D6,D6,BWI RAIL STATION MARC nb,39.1923269999998,-76.69456,STN_BWI RAIL STATION MARC nb,2,2
D7,D7,HALETHORPE MARC nb,39.2387799999998,-76.691196,STN_HALETHORPE MARC nb,2,2
D8,D8,WEST BALTIMORE MARC nb,39.2933439999998,-76.653102,STN_WEST BALTIMORE MARC nb,2,2
D9,D9,PENN STATION MARC nb,39.3071769999998,-76.615903,STN_PENN STATION MARC nb,2,2
D10,D10,MARTIN AIRPORT MARC nb,39.3383239999998,-76.419307,STN_MARTIN AIRPORT MARC nb,2,2
D11,D11,EDGEWOOD MARC nb,39.4159669999998,-76.292139,STN_EDGEWOOD MARC nb,2,2
D12,D12,ABERDEEN MARC nb,39.5091459999998,-76.162588,STN_ABERDEEN MARC nb,2,2
D13,D13,PERRYVILLE MARC,39.5580889999998,-76.07318,STN_PERRYVILLE MARC,2,2
F2,F2,COLLEGE PARK MARC nb,38.9761409999998,-76.929389,STN_COLLEGE PARK MARC nb,2,2
F3,F3,MUIRKIRK MARC nb,39.0620439999998,-76.884971,STN_MUIRKIRK MARC nb,2,2
F4,F4,LAUREL MARC nb,39.1018169999998,-76.842109,STN_LAUREL MARC nb,2,2
F5,F5,SAVAGE MARC nb,39.1228549999998,-76.796351,STN_SAVAGE MARC nb,2,2
F6,F6,DORSEY MARC nb,39.1812679999998,-76.745121,STN_DORSEY MARC nb,2,2
F7,F7,CAMDEN STATION MARC,39.2838769999998,-76.619664,STN_CAMDEN STATION MARC,2,2
