stop_id,stop_code,stop_name,stop_lat,stop_lon,EZLink_Name,Type,stopType
14,14,,38.9776724854765,-76.5364805631283,14,1,1
22,22,,38.9705058501571,-76.5240835504007,22,1,1
27,27,,38.965054400329,-76.5092542493372,27,1,1
38,38,,38.9479234521528,-76.4881824963174,38,1,1
46,46,,38.9644592001717,-76.4894823014284,46,1,1
247,247,,39.5828008500017,-76.998987950001,247,1,1
248,248,,39.5858829000018,-76.9990479999902,248,1,1
249,249,,39.587926650459,-76.9975792500543,249,1,1
250,250,,39.5821396500843,-76.9887694496765,250,1,1
251,251,,39.5850565505981,-76.9884146518834,251,1,1
252,252,,39.5855153310412,-76.9861620209132,252,1,1
253,253,,39.5865023002107,-76.9840641497716,253,1,1
254,254,,39.5795928500022,-76.9851540999958,254,1,1
255,255,,39.5731594500604,-76.9814777001452,255,1,1
259,259,,39.4059228000499,-76.9612851003778,259,1,1
260,260,,39.3996414019791,-76.9349475482631,260,1,1
261,261,,39.4033382776151,-76.9479232116846,261,1,1
262,262,,39.5320152000232,-76.9885970998715,262,1,1
272,272,,39.4010194000021,-76.9449857499934,272,1,1
280,280,,39.6518689688887,-77.1627874990198,280,1,1
281,281,,39.6532691040217,-77.16577371751,281,1,1
282,282,,39.6573984003106,-77.1737469491075,282,1,1
283,283,,39.6593860013139,-77.1768608003666,283,1,1
284,284,,39.6454344665057,-77.1659233438408,284,1,1
285,285,,39.6454935000765,-77.1620355000353,285,1,1
368,368,,39.4227868870709,-76.3229269954752,368,1,1
369,369,,39.4246995836222,-76.3130364624839,369,1,1
375,375,,39.4177960526079,-76.3048972517994,375,1,1
382,382,,39.4185260588287,-76.3012660210637,382,1,1
1228,1228,,39.3288362000079,-76.6558501500492,1228,1,1
1233,1233,,39.3145864979865,-76.6479606525183,1233,1,1
1235,1235,,39.3114642500487,-76.6465869497381,1235,1,1
1236,1236,,39.3101363769829,-76.6465035201941,1236,1,1
1237,1237,,39.3073239424076,-76.6463312498022,1237,1,1
1238,1238,,39.3073281495473,-76.6462133285604,1238,1,1
1239,1239,,39.2979952500057,-76.6400632999694,1239,1,1
1241,1241,,39.2944354460471,-76.6398739384304,1241,1,1
1374,1374,,39.2797007001011,-76.6630794500474,1374,1,1
1375,1375,,39.2804323194333,-76.6690283878829,1375,1,1
1382,1382,,39.3320589501909,-76.6482155001686,1382,1,1
1383,1383,,39.3306801639556,-76.6528404883287,1383,1,1
1384,1384,,39.3257881133937,-76.6574439231335,1384,1,1
1392,1392,,39.2940749001873,-76.6757611000228,1392,1,1
1394,1394,,39.2866867000131,-76.6723409499395,1394,1,1
1395,1395,,39.2809764897956,-76.6725491915174,1395,1,1
1399,1399,,39.2805227500542,-76.6855357997962,1399,1,1
1400,1400,,39.275606400316,-76.6879027509716,1400,1,1
1402,1402,,39.2742698802179,-76.689286831071,1402,1,1
1403,1403,,39.2751029819701,-76.6939943420622,1403,1,1
1407,1407,,39.2813421505184,-76.6972390500421,1407,1,1
1408,1408,,39.2810029522625,-76.701091050997,1408,1,1
1409,1409,,39.2805512844889,-76.7058904430123,1409,1,1
1410,1410,,39.2786494000652,-76.7090541500844,1410,1,1
1411,1411,,39.2773877501606,-76.7122832002127,1411,1,1
1412,1412,,39.2764265501405,-76.7147209501721,1412,1,1
1413,1413,,39.2757702345797,-76.7166339393494,1413,1,1
1414,1414,,39.2745082082764,-76.7204207816416,1414,1,1
1434,1434,,39.4021916869279,-76.5710945220954,1434,1,1
1435,1435,,39.3992531000368,-76.5645684998618,1435,1,1
1439,1439,,39.3916409000185,-76.5655000999847,1439,1,1
1440,1440,,39.3903890003282,-76.5680505505011,1440,1,1
1447,1447,,39.3769121500537,-76.5796205996335,1447,1,1
1449,1449,,39.3715520004624,-76.5825442023535,1449,1,1
1450,1450,,39.3674183501853,-76.5849741009441,1450,1,1
1454,1454,,39.3660061591432,-76.5857906423573,1454,1,1
1465,1465,,39.3394765303444,-76.594058423736,1465,1,1
1466,1466,,39.3363266000025,-76.5943823500196,1466,1,1
1467,1467,,39.3313289000202,-76.5953634500049,1467,1,1
1468,1468,,39.3287363247484,-76.5953702595582,1468,1,1
1470,1470,,39.328343000612,-76.5996235500326,1470,1,1
1476,1476,,39.3251841000727,-76.6158642496209,1476,1,1
1477,1477,,39.3234941186542,-76.6157565370202,1477,1,1
1478,1478,,39.320207200041,-76.6155462997945,1478,1,1
1479,1479,,39.3178954898389,-76.6158893771974,1479,1,1
1480,1480,,39.3144094501039,-76.6151741973624,1480,1,1
1481,1481,,39.3105815495428,-76.6149187134509,1481,1,1
1567,1567,,39.3956089993491,-76.614798512923,1567,1,1
1568,1568,,39.2778120002864,-76.4848239997007,1568,1,1
1569,1569,,39.2772256500778,-76.4809404499837,1569,1,1
1570,1570,,39.2693142770818,-76.4698737643189,1570,1,1
1571,1571,,39.257609003357,-76.4656324965775,1571,1,1
1572,1572,,39.2618264992543,-76.4800331821037,1572,1,1
1573,1573,,39.2634798503446,-76.4856901996435,1573,1,1
1574,1574,,39.2651320510616,-76.4908977988638,1574,1,1
1575,1575,,39.2665767463108,-76.4950104365433,1575,1,1
1576,1576,,39.2683277855021,-76.499216861633,1576,1,1
1577,1577,,39.2696514742804,-76.5022746014236,1577,1,1
1578,1578,,39.271097845061,-76.5069681310763,1578,1,1
1579,1579,,39.2665798000212,-76.5282950498811,1579,1,1
1580,1580,,39.2652824500354,-76.5276708497856,1580,1,1
1581,1581,,39.2635897770531,-76.5270307290765,1581,1,1
1582,1582,,39.2605052500424,-76.5253779497377,1582,1,1
1583,1583,,39.2587490150399,-76.524539699148,1583,1,1
1597,1597,,39.367854000349,-76.716689448847,1597,1,1
1629,1629,,39.3127431014608,-76.6374532251673,1629,1,1
1630,1630,,39.3133923495567,-76.6363582725667,1630,1,1
1631,1631,,39.3168046501877,-76.6314720499836,1631,1,1
1644,1644,,39.2920072483388,-76.6089881163067,1644,1,1
1645,1645,,39.2947040882588,-76.6065369385446,1645,1,1
1646,1646,,39.2967254658345,-76.6049893570592,1646,1,1
1661,1661,,39.3188208354097,-76.5871981581688,1661,1,1
1673,1673,,39.3315621880655,-76.5327279770884,1673,1,1
1674,1674,,39.3332230824084,-76.5325126072614,1674,1,1
1675,1675,,39.3366282768725,-76.533117731414,1675,1,1
1710,1710,,39.3144964699487,-76.6306101161818,1710,1,1
1711,1711,,39.3144205502078,-76.6322560500121,1711,1,1
1712,1712,,39.3144120004336,-76.6335673999896,1712,1,1
1713,1713,,39.3133923495567,-76.6363582725667,1713,1,1
1747,1747,,39.3766855000401,-76.7248736498538,1747,1,1
1748,1748,,39.375043792295,-76.7234296135999,1748,1,1
1749,1749,,39.3745152484866,-76.7229646040074,1749,1,1
1750,1750,,39.3717921503978,-76.7204885986514,1750,1,1
1751,1751,,39.3691905476056,-76.717976871162,1751,1,1
1754,1754,,39.3639788263301,-76.7128259581206,1754,1,1
1755,1755,,39.3628315781191,-76.7112128258144,1755,1,1
1756,1756,,39.3604571501654,-76.7079569495846,1756,1,1
1794,1794,,39.2863517291041,-76.6121872013617,1794,1,1
1795,1795,,39.28671901905,-76.6083450932271,1795,1,1
1796,1796,,39.2868132474707,-76.6059095998478,1796,1,1
1797,1797,,39.2877043001326,-76.6021621501595,1797,1,1
1798,1798,,39.2884423726936,-76.600185161207,1798,1,1
1799,1799,,39.2887967191598,-76.5969965181116,1799,1,1
1801,1801,,39.2893910034267,-76.5900158699842,1801,1,1
1802,1802,,39.2894120617627,-76.5894654472026,1802,1,1
1803,1803,,39.2895048003807,-76.5869969500438,1803,1,1
1804,1804,,39.2895834915564,-76.5850000802543,1804,1,1
1879,1879,,39.4293698021002,-76.6210825920897,1879,1,1
1880,1880,,39.4240320999677,-76.6185559274569,1880,1,1
1881,1881,,39.4172077000615,-76.6148354497185,1881,1,1
1882,1882,,39.412314926254,-76.6110090538001,1882,1,1
1883,1883,,39.3923394501781,-76.6046646014242,1883,1,1
1884,1884,,39.3876118535883,-76.6059999216198,1884,1,1
1885,1885,,39.3787519740636,-76.6084189441372,1885,1,1
1886,1886,,39.3724391999282,-76.6097562952397,1886,1,1
1887,1887,,39.3708516428639,-76.6097998591731,1887,1,1
1965,1965,,39.4806235001189,-76.6559971997111,1965,1,1
1966,1966,,39.4792088221571,-76.6543893761872,1966,1,1
1971,1971,,39.4480996000348,-76.6361483998279,1971,1,1
1977,1977,,39.3991300696677,-76.6027800273464,1977,1,1
1978,1978,,39.3970230172988,-76.6033633258052,1978,1,1
1979,1979,,39.3944597589767,-76.6040927196475,1979,1,1
1980,1980,,39.3845390493568,-76.6068475961609,1980,1,1
1983,1983,,39.4368748000094,-76.6246061499414,1983,1,1
1984,1984,,39.4388040500157,-76.6254572999008,1984,1,1
1985,1985,,39.4682691000417,-76.6284400000826,1985,1,1
1986,1986,,39.4709031000427,-76.6257391000753,1986,1,1
1987,1987,,39.4721874517728,-76.6201727109361,1987,1,1
1988,1988,,39.4735447002697,-76.621502449928,1988,1,1
1989,1989,,39.4737036152676,-76.6236508962825,1989,1,1
1990,1990,,39.4743230131732,-76.6319289498016,1990,1,1
1991,1991,,39.4748080502098,-76.6391264999451,1991,1,1
1992,1992,,39.4872710625584,-76.6566604390931,1992,1,1
1998,1998,,39.2866281056048,-76.611020961522,1998,1,1
1999,1999,,39.2855961927613,-76.5930761084206,1999,1,1
2000,2000,,39.2857105851699,-76.590447165984,2000,1,1
2001,2001,,39.2857526624612,-76.5892308679879,2001,1,1
2002,2002,,39.2858252398643,-76.5874180237353,2002,1,1
2003,2003,,39.2860813171067,-76.5811458388462,2003,1,1
2004,2004,,39.2861863162307,-76.5782707303959,2004,1,1
2005,2005,,39.2862425167204,-76.5769163620754,2005,1,1
2006,2006,,39.2864030001519,-76.57277405002,2006,1,1
2007,2007,,39.286520550245,-76.5697351000313,2007,1,1
2008,2008,,39.2865967037995,-76.5677376419874,2008,1,1
2013,2013,,39.2872760657229,-76.5490768032302,2013,1,1
2014,2014,,39.2873680007611,-76.5461902000858,2014,1,1
2015,2015,,39.2874123001699,-76.5448907000192,2015,1,1
2016,2016,,39.2863245506301,-76.5418807987046,2016,1,1
2017,2017,,39.282524319739,-76.5363283671265,2017,1,1
2018,2018,,39.2817366362732,-76.5360063384073,2018,1,1
2019,2019,,39.2792475987728,-76.534220079573,2019,1,1
2020,2020,,39.2772256000901,-76.5333665994498,2020,1,1
2021,2021,,39.2764557501597,-76.5327316490284,2021,1,1
2027,2027,,39.2383993548299,-76.5092658142873,2027,1,1
2034,2034,,39.2717905040477,-76.5308199574476,2034,1,1
2035,2035,,39.2699040000363,-76.5299048997746,2035,1,1
2036,2036,,39.2682874990133,-76.5291055024477,2036,1,1
2040,2040,,39.2462768278053,-76.5159028433388,2040,1,1
2041,2041,,39.2446035000625,-76.5139509997829,2041,1,1
2042,2042,,39.2434482891153,-76.5130909480529,2042,1,1
2043,2043,,39.2411192789616,-76.5113905961405,2043,1,1
2076,2076,,39.3889541023318,-76.626336497719,2076,1,1
2077,2077,,39.3931830574168,-76.6281432238864,2077,1,1
2078,2078,,39.3798317824439,-76.6222575826589,2078,1,1
2118,2118,,39.266178950211,-76.653021300624,2118,1,1
2119,2119,,39.2649903675906,-76.6543288193453,2119,1,1
2120,2120,,39.2614324481237,-76.6583288206368,2120,1,1
2121,2121,,39.25851065015,-76.6622506503233,2121,1,1
2122,2122,,39.2566191235167,-76.6642602,2122,1,1
2123,2123,,39.2547309288697,-76.6638643881098,2123,1,1
2150,2150,,39.3321817989388,-76.6174712163954,2150,1,1
2164,2164,,39.3813276134487,-76.6192124418977,2164,1,1
2165,2165,,39.3885525000872,-76.6254019998879,2165,1,1
2168,2168,,39.3919821000933,-76.6282310005597,2168,1,1
2293,2293,,39.2620324500004,-76.614569000002,2293,1,1
2294,2294,,39.2516871502593,-76.6167392990134,2294,1,1
2295,2295,,39.2493651449345,-76.6151748862421,2295,1,1
2296,2296,,39.2414117894515,-76.608095174803,2296,1,1
2300,2300,,39.234352388413,-76.6117072913593,2300,1,1
2301,2301,,39.2317766000054,-76.6123436500429,2301,1,1
2302,2302,,39.2291561500026,-76.6132542000207,2302,1,1
2303,2303,,39.2273100079505,-76.6134061114713,2303,1,1
2304,2304,,39.223588550035,-76.6137476502723,2304,1,1
2305,2305,,39.2201298054197,-76.6140694634494,2305,1,1
2306,2306,,39.2173238320374,-76.6143589285084,2306,1,1
2307,2307,,39.2158057064199,-76.6148003808582,2307,1,1
2308,2308,,39.212580050034,-76.6147789002821,2308,1,1
2309,2309,,39.2039908485044,-76.6141143733583,2309,1,1
2310,2310,,39.1963730000153,-76.6134336500981,2310,1,1
2311,2311,,39.1933162391117,-76.6135872925477,2311,1,1
2312,2312,,39.1916938148326,-76.6134629189903,2312,1,1
2313,2313,,39.1882294004577,-76.6134617594138,2313,1,1
2314,2314,,39.185291493583,-76.6139884687043,2314,1,1
2315,2315,,39.1842412500348,-76.6142096003128,2315,1,1
2317,2317,,39.1792046002068,-76.6165109511784,2317,1,1
2318,2318,,39.1764033776459,-76.6179444597208,2318,1,1
2323,2323,,39.1669671226039,-76.6269884782883,2323,1,1
2324,2324,,39.1639714500229,-76.6254795001157,2324,1,1
2325,2325,,39.1606263500893,-76.6274093004786,2325,1,1
2326,2326,,39.1512670000116,-76.6318741001119,2326,1,1
2327,2327,,39.1486835000555,-76.6318678994795,2327,1,1
2328,2328,,39.1451616570521,-76.6315071269555,2328,1,1
2329,2329,,39.1437955244031,-76.6318023298617,2329,1,1
2330,2330,,39.1387210504739,-76.621898499502,2330,1,1
2331,2331,,39.141768654407,-76.6312901605837,2331,1,1
2332,2332,,39.1413536767053,-76.6284690486874,2332,1,1
2333,2333,,39.140314300156,-76.6259286997687,2333,1,1
2334,2334,,39.1383065004245,-76.6206100495895,2334,1,1
2335,2335,,39.1421652500086,-76.6184594999371,2335,1,1
2336,2336,,39.1441895000394,-76.6187022996695,2336,1,1
2337,2337,,39.14881943085,-76.6196724257237,2337,1,1
2338,2338,,39.1517833606847,-76.6185701601969,2338,1,1
2339,2339,,39.1518173004032,-76.6131114485786,2339,1,1
2341,2341,,39.1459760510682,-76.6078461461649,2341,1,1
2342,2342,,39.1413929804245,-76.6033793415098,2342,1,1
2344,2344,,39.1297463741429,-76.593048744605,2344,1,1
2345,2345,,39.1261351166214,-76.5898940943169,2345,1,1
2347,2347,,39.1184835501578,-76.5829908494207,2347,1,1
2348,2348,,39.1065807000247,-76.572255999915,2348,1,1
2349,2349,,39.0881403043081,-76.5552994847131,2349,1,1
2350,2350,,39.0777285000976,-76.5483607505141,2350,1,1
2351,2351,,39.0724289921795,-76.5466834351502,2351,1,1
2352,2352,,39.060906950074,-76.5350677498327,2352,1,1
2353,2353,,39.058290700074,-76.5313151498186,2353,1,1
2354,2354,,39.0573657067169,-76.5282964503453,2354,1,1
2359,2359,,39.0461046500231,-76.5179776999102,2359,1,1
2360,2360,,39.034525044233,-76.5085273668531,2360,1,1
2361,2361,,39.0272917520008,-76.5026307422103,2361,1,1
2435,2435,,39.311905650099,-76.7388021500145,2435,1,1
2436,2436,,39.3073128535931,-76.7341439702556,2436,1,1
2497,2497,,39.3214169018644,-76.5739156227376,2497,1,1
2502,2502,,39.3307511172983,-76.5614374394846,2502,1,1
2503,2503,,39.3331665501013,-76.5587506002481,2503,1,1
2504,2504,,39.3340443501164,-76.5574895002488,2504,1,1
2505,2505,,39.3354821002333,-76.5554196505416,2505,1,1
2506,2506,,39.3367684003455,-76.5535940507884,2506,1,1
2507,2507,,39.3378950335772,-76.551992541242,2507,1,1
2508,2508,,39.3406739000951,-76.5479502002277,2508,1,1
2509,2509,,39.3410914464635,-76.5473684122015,2509,1,1
2510,2510,,39.3421893103814,-76.5453020130073,2510,1,1
2511,2511,,39.3432812502363,-76.544271860086,2511,1,1
2512,2512,,39.3450545001558,-76.5417004503409,2512,1,1
2513,2513,,39.3457510001124,-76.5408435003148,2513,1,1
2514,2514,,39.3496813000468,-76.5364560501353,2514,1,1
2515,2515,,39.3509374490847,-76.535030699274,2515,1,1
2516,2516,,39.3553422299567,-76.5300046036919,2516,1,1
2517,2517,,39.3560499387749,-76.5291951858399,2517,1,1
2518,2518,,39.3594522500489,-76.5253372501439,2518,1,1
2519,2519,,39.3651645004354,-76.5189696512572,2519,1,1
2528,2528,,39.3837072966148,-76.4986314076276,2528,1,1
2646,2646,,39.1953369092967,-76.6852946036863,2646,1,1
2647,2647,,39.1988704510868,-76.6904770411013,2647,1,1
2668,2668,,39.3227267749334,-76.5888272404541,2668,1,1
2669,2669,,39.325415292486,-76.5857394856736,2669,1,1
2671,2671,,39.3375312500211,-76.5744576001106,2671,1,1
2672,2672,,39.3388473500827,-76.5733425003085,2672,1,1
2673,2673,,39.3393796045517,-76.572887212691,2673,1,1
2694,2694,,39.3692965001205,-76.5467595004353,2694,1,1
2695,2695,,39.3727006034999,-76.5437818785796,2695,1,1
2696,2696,,39.3743929500753,-76.5423045502723,2696,1,1
2697,2697,,39.3779775000553,-76.5392825002022,2697,1,1
2761,2761,,39.2980481058603,-76.7513035510042,2761,1,1
2762,2762,,39.2969123477587,-76.7445746738514,2762,1,1
2772,2772,,39.2935568689397,-76.6902165848375,2772,1,1
2780,2780,,39.2858270936983,-76.6719870436907,2780,1,1
2782,2782,,39.2877033529722,-76.6572846504458,2782,1,1
2783,2783,,39.2878820216894,-76.6533395017026,2783,1,1
2784,2784,,39.2879924212682,-76.6508122376302,2784,1,1
2791,2791,,39.2770092775555,-76.5543169681227,2791,1,1
2792,2792,,39.2719684101713,-76.5467439968358,2792,1,1
2795,2795,,39.2595506017251,-76.5389536470094,2795,1,1
2796,2796,,39.2568115283243,-76.5323052347336,2796,1,1
2806,2806,,39.2681699997413,-76.5431894951646,2806,1,1
2821,2821,,39.294372778768,-76.6674328988291,2821,1,1
2841,2841,,39.3053974005221,-76.6429646500583,2841,1,1
2843,2843,,39.3023872500212,-76.6459196498923,2843,1,1
2844,2844,,39.2989061002494,-76.6427122500287,2844,1,1
2860,2860,,39.2867264990336,-76.5968545744258,2860,1,1
2896,2896,,39.3248328168873,-76.5787668745375,2896,1,1
2897,2897,,39.32575184189,-76.5801551703751,2897,1,1
2902,2902,,39.3283217009335,-76.5972023683566,2902,1,1
2912,2912,,39.3315698511719,-76.6500240510401,2912,1,1
2932,2932,,39.2457551520742,-76.634844695631,2932,1,1
2977,2977,,39.327625433357,-76.5839465402431,2977,1,1
2988,2988,,39.2922977827974,-76.5694034944244,2988,1,1
3033,3033,,39.2944285849192,-76.5817640588059,3033,1,1
3034,3034,,39.2944973500908,-76.5800513000143,3034,1,1
3035,3035,,39.294760600151,-76.5733375500199,3035,1,1
3036,3036,,39.2948879154866,-76.5701025817419,3036,1,1
3054,3054,,39.3100148500462,-76.4460556998216,3054,1,1
3055,3055,,39.3085484501074,-76.4448127496065,3055,1,1
3056,3056,,39.3078623000989,-76.4442062496494,3056,1,1
3057,3057,,39.3056411500809,-76.4421289497509,3057,1,1
3058,3058,,39.3012130811196,-76.4453910913803,3058,1,1
3059,3059,,39.3007870000455,-76.4460055001185,3059,1,1
3060,3060,,39.2992212920095,-76.4470932200262,3060,1,1
3067,3067,,39.340568500032,-76.4553585002543,3067,1,1
3077,3077,,39.3140002501667,-76.4568859500998,3077,1,1
3078,3078,,39.313120500193,-76.4621030001126,3078,1,1
3079,3079,,39.3126556371683,-76.4652106420235,3079,1,1
3080,3080,,39.3098074076538,-76.4723217600067,3080,1,1
3081,3081,,39.3089923521995,-76.4743762028758,3081,1,1
3082,3082,,39.3083174502775,-76.476077350363,3082,1,1
3083,3083,,39.3070955390351,-76.479156844648,3083,1,1
3084,3084,,39.3057730004134,-76.4816270007693,3084,1,1
3085,3085,,39.2998741502494,-76.4941847502688,3085,1,1
3086,3086,,39.2956887421018,-76.5091646278573,3086,1,1
3087,3087,,39.2942022056057,-76.5159420369818,3087,1,1
3108,3108,,39.2933501925164,-76.6557180405008,3108,1,1
3109,3109,,39.2934960586034,-76.6626352537448,3109,1,1
3110,3110,,39.2944347027011,-76.664113676186,3110,1,1
3111,3111,,39.2941527632368,-76.6735134455717,3111,1,1
3112,3112,,39.2939585014736,-76.678969050175,3112,1,1
3114,3114,,39.2938459007147,-76.682025150078,3114,1,1
3115,3115,,39.2936810004176,-76.6831529000503,3115,1,1
3116,3116,,39.2936069501105,-76.6851147000135,3116,1,1
3121,3121,,39.2937017504496,-76.6862650000552,3121,1,1
3123,3123,,39.2934606504038,-76.6927931000419,3123,1,1
3125,3125,,39.2931063979141,-76.6976691492335,3125,1,1
3126,3126,,39.2922837127877,-76.702919482476,3126,1,1
3149,3149,,39.3261470213238,-76.4448614738038,3149,1,1
3150,3150,,39.3234547602115,-76.4492796293278,3150,1,1
3158,3158,,39.3384608968519,-76.4683639798903,3158,1,1
3159,3159,,39.3406282160727,-76.4649699276704,3159,1,1
3160,3160,,39.3365566000298,-76.4566957001445,3160,1,1
3161,3161,,39.3380160000054,-76.4476744999609,3161,1,1
3162,3162,,39.3340762739079,-76.4447544891469,3162,1,1
3182,3182,,39.3665795002407,-76.6604613500175,3182,1,1
3183,3183,,39.366918501625,-76.6540747223448,3183,1,1
3184,3184,,39.366682363754,-76.652639304168,3184,1,1
3185,3185,,39.3670095515117,-76.6496238005566,3185,1,1
3193,3193,,39.3441969566306,-76.6343490880071,3193,1,1
3195,3195,,39.3335830991041,-76.6357515762953,3195,1,1
3197,3197,,39.3311299431641,-76.63226334031,3197,1,1
3198,3198,,39.3312195441903,-76.6299278831342,3198,1,1
3199,3199,,39.3287613500016,-76.6292588499884,3199,1,1
3201,3201,,39.3271212985403,-76.6262312636316,3201,1,1
3202,3202,,39.3261966787121,-76.6253492897798,3202,1,1
3203,3203,,39.324277000176,-76.6238417493038,3203,1,1
3204,3204,,39.3226747293073,-76.6225725493711,3204,1,1
3226,3226,,39.2494845008542,-76.6241092511991,3226,1,1
3227,3227,,39.2500432008802,-76.622803001237,3227,1,1
3235,3235,,39.2484355501464,-76.6236612998145,3235,1,1
3236,3236,,39.2470714001411,-76.6214176497192,3236,1,1
3239,3239,,39.2502841524507,-76.6290230478771,3239,1,1
3241,3241,,39.2595425000554,-76.6345492998699,3241,1,1
3278,3278,,39.35359710003,-76.6677105497721,3278,1,1
3279,3279,,39.3496688011309,-76.6746339520076,3279,1,1
3280,3280,,39.3491685996063,-76.6755952662408,3280,1,1
3281,3281,,39.3475444500582,-76.678330000124,3281,1,1
3288,3288,,39.3582160003182,-76.7703904995964,3288,1,1
3289,3289,,39.3558123503683,-76.7641991995725,3289,1,1
3291,3291,,39.3505102057922,-76.750657922096,3291,1,1
3292,3292,,39.3479965930765,-76.7421094259187,3292,1,1
3293,3293,,39.3451372933082,-76.7341902693754,3293,1,1
3294,3294,,39.3429934773689,-76.7284157135545,3294,1,1
3295,3295,,39.3408787241784,-76.7229022992502,3295,1,1
3296,3296,,39.3401443754586,-76.720979483003,3296,1,1
3297,3297,,39.3390913002018,-76.7182224497455,3297,1,1
3320,3320,,39.3143235427439,-76.63477594046,3320,1,1
3321,3321,,39.3091059623945,-76.6331709933647,3321,1,1
3322,3322,,39.3059390688445,-76.6297004234203,3322,1,1
3334,3334,,39.2416502502852,-76.6265580996285,3334,1,1
3335,3335,,39.2429625011683,-76.6295856483339,3335,1,1
3336,3336,,39.2494469028663,-76.6264245466068,3336,1,1
3337,3337,,39.2500243339827,-76.6280495553714,3337,1,1
3338,3338,,39.2510246500479,-76.6317012499341,3338,1,1
3356,3356,,39.3261371500139,-76.7120013500832,3356,1,1
3358,3358,,39.3234633711946,-76.7224216322348,3358,1,1
3359,3359,,39.3218478501034,-76.7304964001231,3359,1,1
3360,3360,,39.3216587002643,-76.732156999922,3360,1,1
3361,3361,,39.3215303000863,-76.734010000103,3361,1,1
3362,3362,,39.3195834296151,-76.7365461260208,3362,1,1
3365,3365,,39.3110921022306,-76.7350966213801,3365,1,1
3381,3381,,39.2391281350549,-76.6092345267821,3381,1,1
3401,3401,,39.2646244971442,-76.6990759180156,3401,1,1
3402,3402,,39.2681556001466,-76.6886262501822,3402,1,1
3403,3403,,39.2733397444267,-76.6728518060508,3403,1,1
3406,3406,,39.285596546517,-76.6375757867091,3406,1,1
3411,3411,,39.3375855501114,-76.6772190497833,3411,1,1
3414,3414,,39.3375243007824,-76.6714989009951,3414,1,1
3415,3415,,39.3407770351865,-76.6643674809687,3415,1,1
3416,3416,,39.3406727811068,-76.6620928538017,3416,1,1
3417,3417,,39.3445429441094,-76.6509533445336,3417,1,1
3419,3419,,39.3434769001005,-76.6364844501243,3419,1,1
3420,3420,,39.3453329822164,-76.6169636993871,3420,1,1
3421,3421,,39.3461720241696,-76.609055929917,3421,1,1
3422,3422,,39.3460755630205,-76.6072369055366,3422,1,1
3423,3423,,39.3455507614981,-76.6039775805899,3423,1,1
3424,3424,,39.3450482007802,-76.5986682997511,3424,1,1
3425,3425,,39.3450482007802,-76.5986682997511,3425,1,1
3426,3426,,39.3455505668072,-76.5923267489644,3426,1,1
3427,3427,,39.3399895191185,-76.5878390579526,3427,1,1
3468,3468,,39.3527815000027,-76.4847549999981,3468,1,1
3484,3484,,39.2989454505433,-76.5798148500703,3484,1,1
3485,3485,,39.2993889018002,-76.5684538097543,3485,1,1
3486,3486,,39.3020649806382,-76.5471210170664,3486,1,1
3487,3487,,39.3035278845978,-76.5423938571716,3487,1,1
3490,3490,,39.312955500059,-76.5261091501314,3490,1,1
3491,3491,,39.3161387119031,-76.5214526205058,3491,1,1
3492,3492,,39.3260530003283,-76.5068405007422,3492,1,1
3493,3493,,39.3288655002598,-76.5027400005996,3493,1,1
3495,3495,,39.3330678500897,-76.4964391501858,3495,1,1
3496,3496,,39.3346232295107,-76.4940043955185,3496,1,1
3498,3498,,39.3531714736761,-76.4740731567375,3498,1,1
3499,3499,,39.3556945001114,-76.471301500388,3499,1,1
3500,3500,,39.3571511170915,-76.4694933922974,3500,1,1
3501,3501,,39.3548145020448,-76.4631418866425,3501,1,1
3502,3502,,39.3565968512734,-76.4591948030261,3502,1,1
3503,3503,,39.3571459043976,-76.4584173520819,3503,1,1
3504,3504,,39.3609710000392,-76.4536550001667,3504,1,1
3650,3650,,39.3321191000743,-76.7065777504173,3650,1,1
3651,3651,,39.328798491519,-76.7077202316618,3651,1,1
3652,3652,,39.3272200916903,-76.711294212147,3652,1,1
3661,3661,,39.3516314452415,-76.6859662184164,3661,1,1
3662,3662,,39.3523134851347,-76.684923298108,3662,1,1
3663,3663,,39.3545264729399,-76.6799462082123,3663,1,1
3664,3664,,39.3555975033161,-76.6776939052016,3664,1,1
3665,3665,,39.3562636511611,-76.6762941018134,3665,1,1
3666,3666,,39.356750677016,-76.6717655148609,3666,1,1
3672,3672,,39.3532250000615,-76.6651843000452,3672,1,1
3673,3673,,39.3615618500566,-76.6454008500574,3673,1,1
3678,3678,,39.360526500122,-76.6011894997729,3678,1,1
3679,3679,,39.3600595004093,-76.5972450003215,3679,1,1
3680,3680,,39.3607062655808,-76.5945268996195,3680,1,1
3681,3681,,39.3606585000702,-76.5911624999392,3681,1,1
3682,3682,,39.359576030621,-76.587798456526,3682,1,1
3683,3683,,39.358957750757,-76.5858812491867,3683,1,1
3684,3684,,39.3580108501177,-76.58290874988,3684,1,1
3685,3685,,39.3573859010241,-76.5813199984993,3685,1,1
3686,3686,,39.3537583503726,-76.5722530497927,3686,1,1
3687,3687,,39.3532021503132,-76.5689116498245,3687,1,1
3688,3688,,39.3528055000522,-76.5667197499526,3688,1,1
3689,3689,,39.3504218472074,-76.5636173808765,3689,1,1
3710,3710,,39.3279970882068,-76.6824565938261,3710,1,1
3737,3737,,39.3362903105692,-76.6747429921063,3737,1,1
3752,3752,,39.3095307613533,-76.6540936254269,3752,1,1
3753,3753,,39.3081157000357,-76.6540099498205,3753,1,1
3754,3754,,39.3024482500129,-76.653662549931,3754,1,1
3755,3755,,39.3001522000492,-76.6535341497407,3755,1,1
3756,3756,,39.3045716506494,-76.6538001328677,3756,1,1
3757,3757,,39.2985227877426,-76.6537084512553,3757,1,1
3769,3769,,39.2551812000012,-76.6343063499991,3769,1,1
3824,3824,,39.3960494966739,-76.6191021629932,3824,1,1
3843,3843,,39.3383164548688,-76.482793933316,3843,1,1
3844,3844,,39.3350081014748,-76.4780941961802,3844,1,1
3850,3850,,39.315655131777,-76.4508781807906,3850,1,1
3873,3873,,39.2988614779895,-76.5818860353949,3873,1,1
3884,3884,,39.2537960308075,-76.6178884732008,3884,1,1
3885,3885,,39.2383112502581,-76.6088014497377,3885,1,1
3886,3886,,39.2373865506906,-76.6058010992979,3886,1,1
3887,3887,,39.2365501025315,-76.6030868474281,3887,1,1
3888,3888,,39.2356665083615,-76.6002198450729,3888,1,1
3889,3889,,39.2347161514374,-76.5971362485396,3889,1,1
3890,3890,,39.2344415145229,-76.5962465774695,3890,1,1
3901,3901,,39.205635153729,-76.5719900796294,3901,1,1
3902,3902,,39.204749553664,-76.5675259975934,3902,1,1
3903,3903,,39.1814640943249,-76.5488096288537,3903,1,1
3904,3904,,39.1758802289891,-76.5465601992769,3904,1,1
3905,3905,,39.1772189539267,-76.5432040468297,3905,1,1
3908,3908,,39.1769397399837,-76.551038669816,3908,1,1
3915,3915,,39.2266249500063,-76.5885824499516,3915,1,1
3916,3916,,39.2235584500059,-76.5882975999546,3916,1,1
3930,3930,,39.3722109502687,-76.741488150754,3930,1,1
3931,3931,,39.3693507001215,-76.7461037000487,3931,1,1
3932,3932,,39.3671053002282,-76.7544184501814,3932,1,1
3933,3933,,39.367282690845,-76.7626271028982,3933,1,1
3934,3934,,39.3673721599384,-76.7663907552433,3934,1,1
3935,3935,,39.3654556561262,-76.7753676832389,3935,1,1
3936,3936,,39.3620636500373,-76.7780910501717,3936,1,1
3937,3937,,39.3564622121559,-76.7659372276918,3937,1,1
3938,3938,,39.3539215739612,-76.7587741242316,3938,1,1
3939,3939,,39.3500859356581,-76.7625079527094,3939,1,1
3940,3940,,39.3480581000045,-76.7648221999593,3940,1,1
3941,3941,,39.3367922334766,-76.7522931921117,3941,1,1
3942,3942,,39.3332709982177,-76.7531882214559,3942,1,1
3943,3943,,39.3330950000025,-76.7596900499799,3943,1,1
3944,3944,,39.3287855000087,-76.7587046000729,3944,1,1
3945,3945,,39.3251076000047,-76.7591977999947,3945,1,1
3946,3946,,39.3210329139272,-76.7585294135453,3946,1,1
3954,3954,,39.2841532440002,-76.7305249836342,3954,1,1
3955,3955,,39.2814491001199,-76.7317070505246,3955,1,1
3956,3956,,39.2633277862674,-76.7297691873763,3956,1,1
3963,3963,,39.2485609001137,-76.6391980997609,3963,1,1
3972,3972,,39.2779183171775,-76.7333959179289,3972,1,1
3977,3977,,39.307805944864,-76.7342913632495,3977,1,1
3996,3996,,39.3535456199882,-76.5320793887368,3996,1,1
3997,3997,,39.3462028000975,-76.6804291002123,3997,1,1
4020,4020,,39.3181706000013,-76.6768332500072,4020,1,1
4021,4021,,39.3201560500096,-76.6771371499434,4021,1,1
4022,4022,,39.3225894502211,-76.6802947492841,4022,1,1
4023,4023,,39.322980400056,-76.6806796498224,4023,1,1
4024,4024,,39.325900531048,-76.6825691465357,4024,1,1
4025,4025,,39.3289425658949,-76.6823582,4025,1,1
4026,4026,,39.3317959500355,-76.68264449973,4026,1,1
4027,4027,,39.3331917925032,-76.6829482462466,4027,1,1
4032,4032,,39.3440369527048,-76.7311608466463,4032,1,1
4033,4033,,39.3375644012157,-76.7142247484677,4033,1,1
4034,4034,,39.3365396182621,-76.7115430508929,4034,1,1
4067,4067,,39.3859475016967,-76.7357124473956,4067,1,1
4068,4068,,39.3570532080285,-76.7035707508821,4068,1,1
4069,4069,,39.3579897468579,-76.704796901281,4069,1,1
4074,4074,,39.4175191001144,-76.7774551997352,4074,1,1
4075,4075,,39.4547781990403,-76.8237695507392,4075,1,1
4076,4076,,39.4603621500247,-76.8275382998169,4076,1,1
4112,4112,,39.3372652760717,-76.4206513007498,4112,1,1
4113,4113,,39.3284088507489,-76.44150375205,4113,1,1
4115,4115,,39.3035897501431,-76.4857490502391,4115,1,1
4116,4116,,39.2947736022052,-76.5125258019016,4116,1,1
4120,4120,,39.2979893833239,-76.4485435159545,4120,1,1
4121,4121,,39.3347809419597,-76.4117157770465,4121,1,1
4122,4122,,39.3375796920279,-76.4044027526382,4122,1,1
4196,4196,,39.3750458694451,-76.6830885277845,4196,1,1
4197,4197,,39.373081734178,-76.6924852467065,4197,1,1
4198,4198,,39.369784550011,-76.6941497000876,4198,1,1
4199,4199,,39.3720196550993,-76.6865534499869,4199,1,1
4200,4200,,39.3721782159237,-76.6825595379014,4200,1,1
4201,4201,,39.3687571505189,-76.6804901983404,4201,1,1
4202,4202,,39.3644006586186,-76.6732758887399,4202,1,1
4204,4204,,39.3587576507292,-76.6824684512609,4204,1,1
4205,4205,,39.358275000778,-76.6833757013719,4205,1,1
4206,4206,,39.3572593000775,-76.6853109001336,4206,1,1
4207,4207,,39.3561742163348,-76.6873442773998,4207,1,1
4223,4223,,39.4166855000551,-76.7762882998733,4223,1,1
4232,4232,,39.2604947500758,-76.5407400498747,4232,1,1
4235,4235,,39.293355327217,-76.6956627978441,4235,1,1
4239,4239,,39.2983622821829,-76.5946564449219,4239,1,1
4241,4241,,39.2808502773056,-76.6598229968279,4241,1,1
4248,4248,,39.3172538530871,-76.6511732004245,4248,1,1
4254,4254,,39.3102743322097,-76.634995592875,4254,1,1
4260,4260,,39.2914921503027,-76.5653389500363,4260,1,1
4267,4267,,39.3934980256111,-76.5636623246178,4267,1,1
4271,4271,,39.3502162500956,-76.480521999936,4271,1,1
4272,4272,,39.2568797500147,-76.523655349906,4272,1,1
4273,4273,,39.4213690500607,-76.6170710996745,4273,1,1
4278,4278,,39.1650392412384,-76.625203592437,4278,1,1
4279,4279,,39.1097501643504,-76.5750938919507,4279,1,1
4280,4280,,39.0985364197621,-76.564973998646,4280,1,1
4284,4284,,39.4825688800455,-76.6570318951015,4284,1,1
4288,4288,,39.3828240821086,-76.4996260331469,4288,1,1
4291,4291,,39.2578323743435,-76.5172988612661,4291,1,1
4297,4297,,39.3452843376961,-76.6226160228155,4297,1,1
4300,4300,,39.3619882831972,-76.5225072389783,4300,1,1
4308,4308,,39.3696188501349,-76.5836806006874,4308,1,1
4311,4311,,39.2554408322821,-76.6342975948194,4311,1,1
4315,4315,,39.2977368237496,-76.7412556827431,4315,1,1
4321,4321,,39.3394645978033,-76.6667766533299,4321,1,1
4322,4322,,39.3407401597961,-76.660132827785,4322,1,1
4324,4324,,39.2992464406789,-76.6401389994595,4324,1,1
4331,4331,,39.3008286500138,-76.6402289999191,4331,1,1
4333,4333,,39.2635474000024,-76.5430090499874,4333,1,1
4334,4334,,39.3399935000634,-76.5794509999303,4334,1,1
4338,4338,,39.2573171504102,-76.5191020003955,4338,1,1
4347,4347,,39.3404120001794,-76.5817544999623,4347,1,1
4350,4350,,39.350448626792,-76.4837799758929,4350,1,1
4359,4359,,39.2876141661501,-76.6592666613225,4359,1,1
4372,4372,,39.3389799512558,-76.5504051393117,4372,1,1
4373,4373,,39.3910537000349,-76.4894215500975,4373,1,1
4413,4413,,39.3599288000973,-76.6802668501688,4413,1,1
4420,4420,,39.4571762888134,-76.6333231165444,4420,1,1
4421,4421,,39.461272300018,-76.6351482498871,4421,1,1
4425,4425,,39.4638840500434,-76.6343931000946,4425,1,1
4426,4426,,39.4670672509218,-76.6315794267535,4426,1,1
4427,4427,,39.4717797483809,-76.621915383129,4427,1,1
4436,4436,,39.4404541434712,-76.6275317860026,4436,1,1
4437,4437,,39.4391268935753,-76.6309701508294,4437,1,1
4438,4438,,39.4447424822549,-76.6338856940606,4438,1,1
4439,4439,,39.4529251603549,-76.639045190962,4439,1,1
4440,4440,,39.4549849958094,-76.6419193870239,4440,1,1
4441,4441,,39.4554720004313,-76.6368846000419,4441,1,1
4442,4442,,39.474273735063,-76.6311928366984,4442,1,1
4448,4448,,39.4915455780239,-76.6665770365379,4448,1,1
4449,4449,,39.4926761500802,-76.658771099436,4449,1,1
4450,4450,,39.4966124500234,-76.6593994998815,4450,1,1
4466,4466,,39.4939101950894,-76.6589054731848,4466,1,1
4468,4468,,39.4293105500645,-76.6210555996041,4468,1,1
4478,4478,,39.3384312153187,-76.6675543011367,4478,1,1
4549,4549,,39.3370122624397,-76.672866258243,4549,1,1
4553,4553,,39.3636836440718,-76.6648296865928,4553,1,1
4558,4558,,39.2946331083036,-76.5765752403631,4558,1,1
4559,4559,,39.2916199501691,-76.5621235500223,4559,1,1
4564,4564,,39.3623993000133,-76.6643429498849,4564,1,1
4566,4566,,39.334590594837,-76.6360516890418,4566,1,1
4567,4567,,39.3452455469813,-76.5863377136378,4567,1,1
4605,4605,,39.2030769123004,-76.5596459870906,4605,1,1
4606,4606,,39.20004125641,-76.556460044928,4606,1,1
4641,4641,,39.2650942633649,-76.6979284801375,4641,1,1
4642,4642,,39.2663589039114,-76.6938998542241,4642,1,1
4643,4643,,39.2690789050054,-76.6859130555104,4643,1,1
4644,4644,,39.2721179000698,-76.6766304500747,4644,1,1
4645,4645,,39.2727939502868,-76.6745562003045,4645,1,1
4646,4646,,39.274787637666,-76.6686115862337,4646,1,1
4657,4657,,39.2857296356882,-76.6347415524969,4657,1,1
4658,4658,,39.2858733505463,-76.6316073000805,4658,1,1
4659,4659,,39.2860299039126,-76.6281834197959,4659,1,1
4660,4660,,39.2858756005924,-76.6235140234117,4660,1,1
4663,4663,,39.2990588251939,-76.5769136446754,4663,1,1
4664,4664,,39.2993049001564,-76.57058270002,4664,1,1
4665,4665,,39.2995083582577,-76.5689683346684,4665,1,1
4666,4666,,39.2996988466577,-76.563994869931,4666,1,1
4667,4667,,39.2998109848343,-76.5609609206779,4667,1,1
4668,4668,,39.299846405077,-76.5565300506483,4668,1,1
4669,4669,,39.2999111195174,-76.5546882375632,4669,1,1
4670,4670,,39.3014043861712,-76.5493265018654,4670,1,1
4671,4671,,39.3057514001108,-76.5364322001757,4671,1,1
4673,4673,,39.3148078554484,-76.5234034068053,4673,1,1
4674,4674,,39.3184030116108,-76.518092402592,4674,1,1
4675,4675,,39.3209693226837,-76.5143800740494,4675,1,1
4676,4676,,39.3230240000564,-76.5112765001179,4676,1,1
4677,4677,,39.3303696564654,-76.5005722252247,4677,1,1
4685,4685,,39.1827410388623,-76.6700794672934,4685,1,1
4688,4688,,39.2961420384163,-76.6399708635584,4688,1,1
4709,4709,,39.360226250859,-76.7756594489362,4709,1,1
4735,4735,,39.4001100323425,-76.7524290874157,4735,1,1
4736,4736,,39.3966023500466,-76.748069249873,4736,1,1
4737,4737,,39.3947131503962,-76.7458158489062,4737,1,1
4738,4738,,39.3920381501504,-76.7426881495758,4738,1,1
4739,4739,,39.3891506148988,-76.7392928412682,4739,1,1
4740,4740,,39.3819339500399,-76.7308627498948,4740,1,1
4741,4741,,39.3794696606854,-76.7279909718896,4741,1,1
4742,4742,,39.3779026852009,-76.7262007720005,4742,1,1
4753,4753,,39.4232710000322,-76.784801549915,4753,1,1
4754,4754,,39.4245718364734,-76.7864033182456,4754,1,1
4755,4755,,39.4277187501598,-76.790248349568,4755,1,1
4756,4756,,39.4342590266529,-76.7982397127004,4756,1,1
4757,4757,,39.4375583841328,-76.8023439998892,4757,1,1
4758,4758,,39.4421871607782,-76.8081496212288,4758,1,1
4759,4759,,39.4458791444261,-76.8127175573459,4759,1,1
4760,4760,,39.4507026512795,-76.818738466481,4760,1,1
4761,4761,,39.4622473500119,-76.8281499999099,4761,1,1
4762,4762,,39.4649788608115,-76.8292046029415,4762,1,1
4763,4763,,39.4694581962634,-76.8296704841575,4763,1,1
4764,4764,,39.4751403190697,-76.8288936985422,4764,1,1
4785,4785,,39.3284784513522,-76.6023130499789,4785,1,1
4791,4791,,39.303960900019,-76.7544022498778,4791,1,1
4802,4802,,39.3959609740989,-76.5630411754094,4802,1,1
4803,4803,,39.4099327681416,-76.6082465446347,4803,1,1
4808,4808,,39.476225733636,-76.6515225100822,4808,1,1
4809,4809,,39.2584786502756,-76.5149967502645,4809,1,1
4812,4812,,39.2713257010211,-76.5080785992737,4812,1,1
4813,4813,,39.2720610001303,-76.511754999931,4813,1,1
4814,4814,,39.2592683001251,-76.4712154498779,4814,1,1
4836,4836,,39.4663870000283,-76.3113385001682,4836,1,1
4837,4837,,39.4742117976834,-76.3090442702333,4837,1,1
4838,4838,,39.4861000502758,-76.3161536991517,4838,1,1
4839,4839,,39.4976554410062,-76.324924567183,4839,1,1
4840,4840,,39.5134695001022,-76.3291914995697,4840,1,1
4841,4841,,39.5202095500083,-76.3354723999449,4841,1,1
4842,4842,,39.5273213010492,-76.3384209019101,4842,1,1
4843,4843,,39.5317797051568,-76.329634553654,4843,1,1
4844,4844,,39.5331287500039,-76.3229440499824,4844,1,1
4845,4845,,39.5368934500929,-76.3237631992631,4845,1,1
4846,4846,,39.5400106353066,-76.325035224764,4846,1,1
4847,4847,,39.5463508506182,-76.3162201504634,4847,1,1
4942,4942,,39.37524129024,-76.6774848854266,4942,1,1
5039,5039,,39.2122730515543,-76.8968328992616,5039,1,1
5040,5040,,39.2125306500577,-76.900469050056,5040,1,1
5041,5041,,39.2070938933947,-76.9001116940992,5041,1,1
5042,5042,,39.2093181428445,-76.8938595731683,5042,1,1
5043,5043,,39.2149793331858,-76.8873736737036,5043,1,1
5068,5068,,39.2118247002177,-76.8423400496627,5068,1,1
5069,5069,,39.2097432500168,-76.8478575000586,5069,1,1
5070,5070,,39.2051990888438,-76.8465999909726,5070,1,1
5071,5071,,39.2012561471668,-76.8477724947003,5071,1,1
5102,5102,,39.1838841500852,-76.805202549971,5102,1,1
5103,5103,,39.1810706500263,-76.799394899754,5103,1,1
5104,5104,,39.1740372500284,-76.8027337001752,5104,1,1
5105,5105,,39.1723179834593,-76.806545349495,5105,1,1
5106,5106,,39.1750379845697,-76.8099192587911,5106,1,1
5107,5107,,39.175959300088,-76.8178425499347,5107,1,1
5108,5108,,39.1776561000503,-76.8219918499008,5108,1,1
5109,5109,,39.1871690749108,-76.8194490891065,5109,1,1
5222,5222,,39.3185677645713,-76.7039833019282,5222,1,1
5223,5223,,39.3125985500311,-76.7064822002182,5223,1,1
5224,5224,,39.3195154460517,-76.7018689498192,5224,1,1
5274,5274,,39.3962235177807,-76.6115634884592,5274,1,1
5275,5275,,39.2164293403856,-76.7102480648574,5275,1,1
5276,5276,,39.2073042402103,-76.7269016865645,5276,1,1
5277,5277,,39.2003599503665,-76.7366909007189,5277,1,1
5278,5278,,39.1928883142912,-76.7502371862621,5278,1,1
5279,5279,,39.1910083671101,-76.7536091807315,5279,1,1
5283,5283,,39.3487700004404,-76.4775774990894,5283,1,1
5289,5289,,39.3230694319165,-76.727999919983,5289,1,1
5293,5293,,39.3560958504205,-76.5784193993838,5293,1,1
5294,5294,,39.3549870652951,-76.576000988911,5294,1,1
5296,5296,,39.3235139707836,-76.7248031131112,5296,1,1
5298,5298,,39.3978343621316,-76.7495553413838,5298,1,1
5299,5299,,39.1581778567621,-76.6288139996626,5299,1,1
5300,5300,,39.1842192462556,-76.7639712509143,5300,1,1
5301,5301,,39.1755651338862,-76.7766256518965,5301,1,1
5308,5308,,39.3377627502163,-76.399191499872,5308,1,1
5311,5311,,39.3432787632427,-76.4500021873656,5311,1,1
5312,5312,,39.336579037617,-76.4469457622579,5312,1,1
5313,5313,,39.333293500106,-76.4413310000145,5313,1,1
5314,5314,,39.3751389752045,-76.6931720298256,5314,1,1
5317,5317,,39.390094170433,-76.6283552155689,5317,1,1
5327,5327,,39.2911109641852,-76.5092917321418,5327,1,1
5328,5328,,39.2858990000951,-76.5020774997949,5328,1,1
5329,5329,,39.282865321094,-76.4958827120165,5329,1,1
5330,5330,,39.280813786656,-76.4917806271125,5330,1,1
5331,5331,,39.2683311500495,-76.4691742997815,5331,1,1
5332,5332,,39.2566386206536,-76.4621233746588,5332,1,1
5333,5333,,39.2726800017801,-76.516493499262,5333,1,1
5336,5336,,39.353815668153,-76.4731302556854,5336,1,1
5348,5348,,39.2862713963359,-76.5762066880514,5348,1,1
5349,5349,,39.286444896879,-76.571773220926,5349,1,1
5350,5350,,39.2856885001663,-76.5405925996553,5350,1,1
5351,5351,,39.2742275001765,-76.5319494989543,5351,1,1
5352,5352,,39.3147254340963,-76.4526191170011,5352,1,1
5356,5356,,39.280868896011,-76.7050240235493,5356,1,1
5359,5359,,39.187057200021,-76.6138070000966,5359,1,1
5360,5360,,39.182573090879,-76.6146018161138,5360,1,1
5361,5361,,39.177366600088,-76.622231000035,5361,1,1
5362,5362,,39.1760994014673,-76.6250954523039,5362,1,1
5363,5363,,39.1616276500982,-76.6268360005121,5363,1,1
5366,5366,,39.1407663875385,-76.6184727751202,5366,1,1
5367,5367,,39.15332900005,-76.6157862500888,5367,1,1
5368,5368,,39.1384384181893,-76.6010418756928,5368,1,1
5369,5369,,39.1005518009211,-76.5668008468399,5369,1,1
5370,5370,,39.0813702259354,-76.5494924469361,5370,1,1
5397,5397,,39.3392550000054,-76.5322310000433,5397,1,1
5407,5407,,39.2859237001455,-76.6687936500143,5407,1,1
5422,5422,,39.3755422970239,-76.5796155641956,5422,1,1
5433,5433,,39.3411548439234,-76.7619720830094,5433,1,1
5434,5434,,39.3385945502425,-76.7560650496553,5434,1,1
5435,5435,,39.2735263000324,-76.7319237497473,5435,1,1
5438,5438,,39.326590954201,-76.7591281478991,5438,1,1
5473,5473,,39.1918075500454,-76.6818783999314,5473,1,1
5475,5475,,39.3758938517287,-76.6917684500653,5475,1,1
5486,5486,,39.2705642009246,-76.4707701959927,5486,1,1
5489,5489,,39.3758340506474,-76.6730697000884,5489,1,1
5499,5499,,39.3345577001481,-76.4755347503051,5499,1,1
5500,5500,,39.3187944232621,-76.4541062369615,5500,1,1
5505,5505,,39.3122691200651,-76.6400982436501,5505,1,1
5507,5507,,39.373502500045,-76.5095385001325,5507,1,1
5508,5508,,39.3767580000315,-76.5059080000948,5508,1,1
5509,5509,,39.3799600472817,-76.5028179745379,5509,1,1
5511,5511,,39.1771132009416,-76.8008269533347,5511,1,1
5514,5514,,39.2781643506286,-76.6858790030294,5514,1,1
5543,5543,,39.0655144821355,-76.5398719833486,5543,1,1
5550,5550,,39.3873012252359,-76.4939808696996,5550,1,1
5554,5554,,39.3598340001356,-76.4548045003586,5554,1,1
5560,5560,,39.3042256955034,-76.5398291004147,5560,1,1
5563,5563,,39.3561160008878,-76.4663284987788,5563,1,1
5581,5581,,39.3447905001384,-76.6291205000497,5581,1,1
5590,5590,,39.2859464742149,-76.6300111518844,5590,1,1
5594,5594,,39.193465550059,-76.683949149776,5594,1,1
5595,5595,,39.252128602417,-76.6332267449976,5595,1,1
5596,5596,,39.3304783000231,-76.758802949835,5596,1,1
5597,5597,,39.2610261002767,-76.7317247012116,5597,1,1
5609,5609,,39.3402595000514,-76.584542000052,5609,1,1
5611,5611,,39.3310338037567,-76.6345737494912,5611,1,1
5612,5612,,39.2201451929144,-76.5879849157358,5612,1,1
5613,5613,,39.2098987460016,-76.5855907033021,5613,1,1
5621,5621,,39.1925869500395,-76.5546271996393,5621,1,1
5632,5632,,39.3680464501174,-76.6797330496963,5632,1,1
5641,5641,,39.3673496782717,-76.6785117980906,5641,1,1
5646,5646,,39.1790510503805,-76.771023400805,5646,1,1
5670,5670,,39.3442878173769,-76.7641339253841,5670,1,1
5680,5680,,39.1764080012845,-76.5493748986516,5680,1,1
5682,5682,,39.3720200028775,-76.6895040500058,5682,1,1
5699,5699,,39.3144133504525,-76.6329219000168,5699,1,1
5701,5701,,39.3678458001257,-76.450692249732,5701,1,1
5702,5702,,39.3659319500968,-76.6750569498313,5702,1,1
5723,5723,,39.3476353974983,-76.4758582529619,5723,1,1
5747,5747,,39.2155105164728,-76.5875451199,5747,1,1
5766,5766,,39.2808745501812,-76.5561624500229,5766,1,1
5772,5772,,39.2603504561109,-76.5121265553234,5772,1,1
5774,5774,,39.2805846945668,-76.5662517875765,5774,1,1
5780,5780,,39.3664926915772,-76.7578702394555,5780,1,1
5781,5781,,39.4477246078088,-76.8149921896665,5781,1,1
5784,5784,,39.3116967511886,-76.5850696033515,5784,1,1
5802,5802,,39.2936345006547,-76.6521593500918,5802,1,1
5864,5864,,39.2855285005535,-76.6390366500829,5864,1,1
5865,5865,,39.3665872502395,-76.6641272498906,5865,1,1
5866,5866,,39.4622517000255,-76.6355777498382,5866,1,1
5868,5868,,39.0247564656629,-76.5005646674051,5868,1,1
5876,5876,,39.2303643500448,-76.6129662502895,5876,1,1
5878,5878,,39.3440369527048,-76.7311608466463,5878,1,1
5884,5884,,39.3202093454279,-76.7002369969196,5884,1,1
5886,5886,,39.4745616418317,-76.6420142841424,5886,1,1
5888,5888,,39.383838500167,-76.6268990008882,5888,1,1
5889,5889,,39.3820099000401,-76.6266615999183,5889,1,1
5920,5920,,39.3534680000818,-76.6645116501074,5920,1,1
5922,5922,,39.2927570922329,-76.6519359765026,5922,1,1
5926,5926,,39.1918508506578,-76.6746112502071,5926,1,1
5961,5961,,39.3053528000881,-76.64428475001,5961,1,1
5962,5962,,39.2380403332635,-76.4852416083682,5962,1,1
